WKT,stop_name,stop_id,shape_X,shape_Y
"POINT (-96.7681307103108 32.834680083915)",ANITA @ MATILDA - E - NS,12914,-96.7681307103108,32.834680083915
"POINT (-96.6653414151313 32.9165660595755)",SHILOH @ WALNUT - S - NS,19727,-96.6653414151313,32.9165660595755
"POINT (-96.847471713806 32.821945195268)",BASS CENTER,28051,-96.847471713806,32.821945195268
"POINT (-96.7575624135341 32.9259780744853)",TPKIRW,28936,-96.7575624135341,32.9259780744853
"POINT (-96.7780128197055 32.7980480930963)",LIVE OAK @ PEAK - W - NS,12934,-96.7780128197055,32.7980480930963
"POINT (-96.778194820208 32.7977650933515)",LIVE OAK @ PEAK - E - NS,12945,-96.778194820208,32.7977650933515
"POINT (-96.7707118065792 32.8040020839714)",LIVE OAK @ COLLETT - E - NS,12949,-96.7707118065792,32.8040020839714
"POINT (-96.7678657103803 32.8346110840018)",MATILDA @ ANITA - N - NS,12965,-96.7678657103803,32.8346110840018
"POINT (-96.7600225617131 32.8810060756681)",GREENVILLE @ PINELAND - S - MB,12984,-96.7600225617131,32.8810060756681
"POINT (-96.7764299335843 32.7617930860387)",COLONIAL @ MLK - N - NS,13009,-96.7764299335843,32.7617930860387
"POINT (-96.7876718968093 32.7703791002437)",ERVAY @ BEAUMONT - N - FS,13015,-96.7876718968093,32.7703791002437
"POINT (-96.7876028978083 32.770227100249)",ERVAY @ BEAUMONT - S - NS,13028,-96.7876028978083,32.770227100249
"POINT (-96.7785049293896 32.7625330880245)",ERVAY @ SOUTH - S - NS,13034,-96.7785049293896,32.7625330880245
"POINT (-96.7769749329772 32.762063086642)",COLONIAL @ MLK - S - NS,13035,-96.7769749329772,32.762063086642
"POINT (-96.7529847746286 32.8166710613238)",ABRAMS @ RICHMOND - S - MB,13056,-96.7529847746286,32.8166710613238
"POINT (-96.7697348532816 32.7894830811379)",MAIN @ PEAK - S - FS,13072,-96.7697348532816,32.7894830811379
"POINT (-96.7690248525759 32.7898460806487)",MAIN @ PEAK - N - NS,13083,-96.7690248525759,32.7898460806487
"POINT (-96.7528657778179 32.8159730613429)",ABRAMS @ RICHMOND - N - NS,13099,-96.7528657778179,32.8159730613429
"POINT (-96.824664892678 32.7591411410195)",COLORADO @ BALLARD - W - MB,13125,-96.824664892678,32.7591411410195
"POINT (-96.8279699141457 32.7496201413546)",BISHOP @ DAVIS - S - NS,13131,-96.8279699141457,32.7496201413546
"POINT (-96.8369359268785 32.7200241527279)",VERNON @ ILLINOIS - S - FS,13138,-96.8369359268785,32.7200241527279
"POINT (-96.8252438518043 32.77424514718)",COMMERCE @ LANGFORD - E - NS,13164,-96.8252438518043,32.77424514718
"POINT (-96.7594445964244 32.8704230745821)",RIDGECREST @ HEMLOCK- E - MB,13195,-96.7594445964244,32.8704230745821
"POINT (-96.7599005949027 32.8709930749089)",RIDGECREST @ PARK - W - NS,13239,-96.7599005949027,32.8709930749089
"POINT (-96.7749689302412 32.7635930846624)",MLK @ HARWOOD - S - NS,13256,-96.7749689302412,32.7635930846624
"POINT (-96.7591409826601 32.7522230648469)",LELAND @ SOUTHLAND - N - NS,13296,-96.7591409826601,32.7522230648469
"POINT (-96.8061697624977 32.8115861336165)",OAK LAWN @ LEMMON - S - FS,13312,-96.8061697624977,32.8115861336165
"POINT (-96.8056977624472 32.8117291337969)",OAK LAWN @ LEMMON - N - NS,13332,-96.8056977624472,32.8117291337969
"POINT (-96.768262919584 32.7689680771828)",MALCOLM X @ MLK - N - NS,13365,-96.768262919584,32.7689680771828
"POINT (-96.7703998471916 32.7912420822743)",PEAK @ ELM - W - FS,13372,-96.7703998471916,32.7912420822743
"POINT (-96.771802851776 32.7894420835117)",HASKELL @ ELM - E - NS,13418,-96.771802851776,32.7894420835117
"POINT (-96.8516138907374 32.7464731676507)",JEFFERSON @ MARLBOROUGH - E - NS,13434,-96.8516138907374,32.7464731676507
"POINT (-96.8230869234791 32.7433481362913)",JEFFERSON @ BECKLEY - E - NS,13445,-96.8230869234791,32.7433481362913
"POINT (-96.8127649130547 32.7561811262407)",EWING @ SABINE - S - NS,13458,-96.8127649130547,32.7561811262407
"POINT (-96.7345329352775 32.7649170547073)",DIXON @ BARBER - S - NS,13506,-96.7345329352775,32.7649170547073
"POINT (-96.7549867080284 32.8365990652612)",MOCKINGBIRD @ ALDERSON - W - NS,13536,-96.7549867080284,32.8365990652612
"POINT (-96.7888467364252 32.8233691123731)",COLE @ KNOX - S - NS,13542,-96.7888467364252,32.8233691123731
"POINT (-96.7878247410111 32.8220051109478)",MCKINNEY @ KNOX - N - MB,13555,-96.7878247410111,32.8220051109478
"POINT (-96.7531827095548 32.8363750625634)",MOCKINGBIRD @ ABRAMS - E - NS,13562,-96.7531827095548,32.8363750625634
"POINT (-96.745518922313 32.7718370549285)",SPRING @ SWANSON - E - NS,13569,-96.745518922313,32.7718370549285
"POINT (-96.7742518640166 32.784750086356)",COMMERCE @ EXPOSITION - E - NS,13604,-96.7742518640166,32.784750086356
"POINT (-96.7573829198184 32.7718400641319)",FITZHUGH @ 2ND - E - NS,13606,-96.7573829198184,32.7718400641319
"POINT (-96.8026189761595 32.6820631163631)",SINGING HILLS @ LEDBETTER - N - MB,13622,-96.8026189761595,32.6820631163631
"POINT (-96.8569538828812 32.748163173524)",HAMPTON @ JEFFERSON - S - NS,13722,-96.8569538828812,32.748163173524
"POINT (-96.7977818479219 32.7838821160052)",ST PAUL @ BRYAN - S - NS,13730,-96.7977818479219,32.7838821160052
"POINT (-96.8018848649887 32.7768721191108)",YOUNG @ GRIFFIN - W - NS,13733,-96.8018848649887,32.7768721191108
"POINT (-96.7142308262556 32.7930650552871)",SAMUELL @ TREW - E - NS,13834,-96.7142308262556,32.7930650552871
"POINT (-96.6906028333609 32.7847250551963)",ST FRANCIS @ TRACE - S - NS,13849,-96.6906028333609,32.7847250551963
"POINT (-96.7750068294218 32.7955280884554)",GASTON @ PEAK - S - NS,13864,-96.7750068294218,32.7955280884554
"POINT (-96.7822168432851 32.7893460976479)",GASTON @ HALL - N - NS,13879,-96.7822168432851,32.7893460976479
"POINT (-96.7752508311772 32.795164088861)",GASTON @ PEAK - N - NS,13884,-96.7752508311772,32.795164088861
"POINT (-96.7616017074699 32.8361300745575)",SKILLMAN @ MOCKINGBIRD - S - FS,13984,-96.7616017074699,32.8361300745575
"POINT (-96.7693758025888 32.8052310829856)",LIVE OAK @ MUNGER - W - FS,14003,-96.7693758025888,32.8052310829856
"POINT (-96.7614037090692 32.835569074509)",SKILLMAN @ WINTON - N - NS,14025,-96.7614037090692,32.835569074509
"POINT (-96.822855938897 32.7201751370315)",BECKLEY @ ILLINOIS - N - NS,14117,-96.822855938897,32.7201751370315
"POINT (-96.8227968820169 32.7637801404137)",BECKLEY @ GREENBRIAR - N - NS,14135,-96.8227968820169,32.7637801404137
"POINT (-96.8229199231155 32.743066135566)",BECKLEY @ JEFFERSON - S - FS,14152,-96.8229199231155,32.743066135566
"POINT (-96.8229039384304 32.7205561369173)",BECKLEY @ ILLINOIS - S - NS,14159,-96.8229039384304,32.7205561369173
"POINT (-96.798504841116 32.7859401173449)",SAN JACINTO @ HARWOOD - E - NS,14210,-96.798504841116,32.7859401173449
"POINT (-96.7824377769348 32.8110401013072)",CAPITOL @ FITZHUGH - S - FS,14234,-96.7824377769348,32.8110401013072
"POINT (-96.7821827769103 32.8111241014115)",CAPITOL @ FITZHUGH - N - NS,14249,-96.7821827769103,32.8111241014115
"POINT (-96.8573707211969 32.8169732075203)",RECORD CROSSING @ VAN WINKLE - W -  NS,14303,-96.8573707211969,32.8169732075203
"POINT (-96.7658056388011 32.8570070830584)",AMESBURY @ SOUTHWESTERN - S - FS,14312,-96.7658056388011,32.8570070830584
"POINT (-96.7008075906567 32.8643600581238)",NORTHWEST @ PLANO - W - NS,14329,-96.7008075906567,32.8643600581238
"POINT (-96.8004526086437 32.8656611394277)",NORTHWEST @ PICKWICK - W - NS,14342,-96.8004526086437,32.8656611394277
"POINT (-96.894661613659 32.8598092879354)",TECHNOLOGY E @ CONNECTOR - S - NS,14359,-96.894661613659,32.8598092879354
"POINT (-96.8036476094589 32.8654341447153)",NORTHWEST @ PRESTON - E - FS,14384,-96.8036476094589,32.8654341447153
"POINT (-96.7006735912208 32.8641220583407)",NORTHWEST @ LAKE HIGHLANDS - E - NS,14395,-96.7006735912208,32.8641220583407
"POINT (-96.8366517199003 32.8214581804425)",MAPLE @ INWOOD - S - NS,14416,-96.8366517199003,32.8214581804425
"POINT (-96.8198977608594 32.8092631517568)",MAPLE @ WYCLIFF - N - NS,14422,-96.8198977608594,32.8092631517568
"POINT (-96.8032128202332 32.7919861246973)",MCKINNEY @ OLIVE - S - NS,14431,-96.8032128202332,32.7919861246973
"POINT (-96.8036168237712 32.7905251253763)",MCKINNEY @ HARWOOD - N - NS,14437,-96.8036168237712,32.7905251253763
"POINT (-96.8204857594314 32.8095981535164)",MAPLE @ WYCLIFF - S - NS,14447,-96.8204857594314,32.8095981535164
"POINT (-96.8362177210902 32.8212141791939)",MAPLE @ INWOOD - N - NS,14451,-96.8362177210902,32.8212141791939
"POINT (-96.8144359464847 32.7200831277103)",MARSALIS @ ILLINOIS - N - NS,14478,-96.8144359464847,32.7200831277103
"POINT (-96.8146189460727 32.7204871273187)",MARSALIS @ ILLINOIS - S - NS,14492,-96.8146189460727,32.7204871273187
"POINT (-96.8137949641956 32.6912821280254)",ANN ARBOR @ MARSALIS - E - FS,14504,-96.8137949641956,32.6912821280254
"POINT (-96.8256719773877 32.6597221424306)",PARTRIDGE @ WILCOX - N - MB,14509,-96.8256719773877,32.6597221424306
"POINT (-96.8145809641332 32.6907481288843)",MARSALIS @ ANN ARBOR - N - MB,14528,-96.8145809641332,32.6907481288843
"POINT (-96.8406374363162 32.9325542327233)",ALPHA @ MIDWAY - E - MB,14558,-96.8406374363162,32.9325542327233
"POINT (-96.8171207278555 32.8219081524643)",LEMMON @ MACARTHUR - N - MB,14630,-96.8171207278555,32.8219081524643
"POINT (-96.8357296132178 32.8627341955207)",MIDWAY @ NORTHWEST - N - MB,14658,-96.8357296132178,32.8627341955207
"POINT (-96.7747317169848 32.8318530933486)",MCMILLAN @ MARTEL - S - NS,14878,-96.7747317169848,32.8318530933486
"POINT (-96.7762047955961 32.8062990924448)",ROSS @ FITZHUGH - S - NS,14903,-96.7762047955961,32.8062990924448
"POINT (-96.7837498106188 32.7999741007261)",ROSS @ HASKELL - S - NS,14908,-96.7837498106188,32.7999741007261
"POINT (-96.783833810671 32.7998141007816)",ROSS @ HASKELL - N - NS,14912,-96.783833810671,32.7998141007816
"POINT (-96.7763497967451 32.8060320923632)",ROSS @ FITZHUGH - N - NS,14918,-96.7763497967451,32.8060320923632
"POINT (-96.7746207177091 32.8315880935025)",MCMILLAN @ MARTEL - N - NS,14941,-96.7746207177091,32.8315880935025
"POINT (-96.8068428564377 32.7781961259641)",COMMERCE @ RECORD - E - NS,14963,-96.8068428564377,32.7781961259641
"POINT (-96.8744098147449 32.7711962046928)",LA REUNION @ WESTMORELAND - W - FS,14971,-96.8744098147449,32.7711962046928
"POINT (-96.8038674762216 32.9117531576569)",PRESTON @ FOREST - S - MB,14986,-96.8038674762216,32.9117531576569
"POINT (-96.8044336916367 32.836759138567)",PRESTON @ MOCKINGBIRD - S - NS,15020,-96.8044336916367,32.836759138567
"POINT (-96.8043416922272 32.8364501382413)",PRESTON @ MOCKINGBIRD - N - NS,15052,-96.8043416922272,32.8364501382413
"POINT (-96.803774525732 32.8946081529453)",PRESTON @ ROYAL - N - NS,15081,-96.803774525732,32.8946081529453
"POINT (-96.8037464784005 32.9111111571493)",PRESTON @ PRESTON FOREST SQUARE - N - NS,15084,-96.8037464784005,32.9111111571493
"POINT (-96.8031523556103 32.9537741671776)",BELT LINE @ PRESTON - E - FS,15089,-96.8031523556103,32.9537741671776
"POINT (-96.8038984121536 32.9340911638706)",PRESTON @ ALPHA - S - MB,15093,-96.8038984121536,32.9340911638706
"POINT (-96.7487158878883 32.7832880561829)",HASKELL @ CROSSTOWN - W - FS,15114,-96.7487158878883,32.7832880561829
"POINT (-96.7764258584348 32.7861840897852)",ELM @ 2ND - W - FS,15121,-96.7764258584348,32.7861840897852
"POINT (-96.7503298887334 32.7832190566105)",HASKELL @ FITZHUGH - E - NS,15133,-96.7503298887334,32.7832190566105
"POINT (-96.6664328764815 32.7634830540367)",SCYENE @ KIRVEN - W - NS,15159,-96.6664328764815,32.7634830540367
"POINT (-96.6828258720747 32.7697970546251)",BUCKNER @ MILITARY - S - NS,15177,-96.6828258720747,32.7697970546251
"POINT (-96.757641998176 32.7017380656247)",VANDERVOORT @ LEDBETTER - S - NS,15271,-96.757641998176,32.7017380656247
"POINT (-96.7839099761123 32.7114540944692)",SUNNYVALE @ OVERTON - N - NS,15286,-96.7839099761123,32.7114540944692
"POINT (-96.7689799855258 32.7217570771018)",SOUTHERN OAKS @ OVERTON - E - NS,15312,-96.7689799855258,32.7217570771018
"POINT (-96.7910669714423 32.7082881021678)",GARRISON @ OVERTON - N - NS,15343,-96.7910669714423,32.7082881021678
"POINT (-96.7913539712564 32.7084941025091)",GARRISON @ OVERTON - S - NS,15362,-96.7913539712564,32.7084941025091
"POINT (-96.8088237677064 32.8091281370539)",CEDAR SPRINGS @ OAK LAWN - S - NS,15400,-96.8088237677064,32.8091281370539
"POINT (-96.7969638538833 32.7819801145164)",ELM @ ERVAY - W - NS,15408,-96.7969638538833,32.7819801145164
"POINT (-96.8091267662659 32.8094461376713)",CEDAR SPRINGS @ OAK LAWN - N - FS,15421,-96.8091267662659,32.8094461376713
"POINT (-96.8855945705194 32.880537286211)",HARRY HINES @ WALNUT HILL - S - FS,15461,-96.8855945705194,32.880537286211
"POINT (-96.8481577158521 32.8209741965984)",HARRY HINES @ EXCHANGE - N - FS,15492,-96.8481577158521,32.8209741965984
"POINT (-96.8572344989219 32.909709252713)",FOREST @ MARSH - W - FS,15533,-96.8572344989219,32.909709252713
"POINT (-96.7861229723937 32.7171530959005)",KIEST @ ILLINOIS - E - NS,15568,-96.7861229723937,32.7171530959005
"POINT (-96.7860469650839 32.73565409493)",KIEST @ RECTOR - N - FS,15578,-96.7860469650839,32.73565409493
"POINT (-96.810605929042 32.7512301224756)",8TH @ JEFFERSON - W - MB,15589,-96.810605929042,32.7512301224756
"POINT (-96.8560848826478 32.7496161728373)",DAVIS @ TENNA LOMA - W - NS,15607,-96.8560848826478,32.7496161728373
"POINT (-96.87387586298 32.7496351918907)",DAVIS @ WESTMORELAND - W - NS,15613,-96.87387586298,32.7496351918907
"POINT (-96.8570308820412 32.7494371731894)",DAVIS @ HAMPTON - E - NS,15629,-96.8570308820412,32.7494371731894
"POINT (-96.828737913281 32.7493951422903)",DAVIS @ BISHOP - E - MB,15638,-96.828737913281,32.7493951422903
"POINT (-96.8107719294307 32.751188122552)",8TH @ IH 35 - E - MB,15645,-96.8107719294307,32.751188122552
"POINT (-96.7862409656278 32.7354510954845)",KIEST @ RECTOR - S - NS,15654,-96.7862409656278,32.7354510954845
"POINT (-96.786516971928 32.7172350964167)",KIEST @ ILLINOIS - W - FS,15662,-96.786516971928,32.7172350964167
"POINT (-96.8445429200035 32.7202071612574)",EDGEFIELD @ ILLINOIS - N - NS,15680,-96.8445429200035,32.7202071612574
"POINT (-96.8440909001108 32.7440431595711)",EDGEFIELD @ JEFFERSON - N - NS,15691,-96.8440909001108,32.7440431595711
"POINT (-96.8229958806614 32.7640281409905)",BECKLEY @ GREENBRIAR - S - NS,15714,-96.8229958806614,32.7640281409905
"POINT (-96.8441448999613 32.7445161591332)",EDGEFIELD @ JEFFERSON - S - NS,15732,-96.8441448999613,32.7445161591332
"POINT (-96.8447099162885 32.7244081609343)",EDGEFIELD @ BERKLEY - S - NS,15742,-96.8447099162885,32.7244081609343
"POINT (-96.8446249190354 32.720548161074)",EDGEFIELD @ ILLINOIS - S - NS,15746,-96.8446249190354,32.720548161074
"POINT (-96.8581065001335 32.9094992543417)",FOREST @ MARSH - E - MB2,15816,-96.8581065001335,32.9094992543417
"POINT (-96.7537589971156 32.7390340590736)",SAMOA @ BEXAR - N - NS,15842,-96.7537589971156,32.7390340590736
"POINT (-96.7686669178529 32.7691970777382)",MALCOLM X @ MLK - S - NS,15879,-96.7686669178529,32.7691970777382
"POINT (-96.7539179727874 32.7567740593488)",MALCOLM X @ SOUTHLAND - S - NS,15891,-96.7539179727874,32.7567740593488
"POINT (-96.8369999267965 32.720266152995)",ILLINOIS @ VERNON - E - NS,15925,-96.8369999267965,32.720266152995
"POINT (-96.7863609610735 32.7464320954128)",CEDAR CREST @ PONTIAC - N - FS,15951,-96.7863609610735,32.7464320954128
"POINT (-96.7745639301852 32.7637530839516)",MLK @ US 175 - N - NS,15955,-96.7745639301852,32.7637530839516
"POINT (-96.7766699324112 32.7621020859085)",MLK @ COLONIAL - S - NS,15965,-96.7766699324112,32.7621020859085
"POINT (-96.7866189607152 32.7465030954275)",CEDAR CREST @ 11TH - S - NS,15967,-96.7866189607152,32.7465030954275
"POINT (-96.8381399251367 32.720495153778)",ILLINOIS @ TYLER - W - FS,15993,-96.8381399251367,32.720495153778
"POINT (-96.7716389076014 32.7715270810937)",AL LIPSCOMB WAY @ MALCOLM X - N - NS,16040,-96.7716389076014,32.7715270810937
"POINT (-96.9011539034511 32.6945272252193)",COUNTRY CREEK @ COUNTRY CREEK CT - S - FS,16084,-96.9011539034511,32.6945272252193
"POINT (-96.8741528785339 32.7341991930609)",WESTMORELAND @ CLARENDON - N - NS,16109,-96.8741528785339,32.7341991930609
"POINT (-96.8504688566619 32.7631581719847)",PLYMOUTH @ TARRANT - N - NS,16126,-96.8504688566619,32.7631581719847
"POINT (-96.8504688555213 32.7634561729434)",PLYMOUTH @ TARRANT - S - NS,16129,-96.8504688555213,32.7634561729434
"POINT (-96.8743788788713 32.7340881932182)",WESTMORELAND @ THIBET - S - NS,16144,-96.8743788788713,32.7340881932182
"POINT (-96.8827169238384 32.6874192042788)",WESTMORELAND @ BRONZE - S - NS,16165,-96.8827169238384,32.6874192042788
"POINT (-96.8910099193269 32.6873362135707)",BRONZE @ COCKRELL HILL - W - NS,16167,-96.8910099193269,32.6873362135707
"POINT (-96.8918989086746 32.6955682148092)",EXCHANGE SERVICE @ COCKRELL HILL -  W  -  FS,16169,-96.8918989086746,32.6955682148092
"POINT (-96.8203957866266 32.7998831500626)",IH 35 @ OAK LAWN - W - FS,16188,-96.8203957866266,32.7998831500626
"POINT (-96.8551595686107 32.8804902353798)",WALNUT HILL @ MARSH - W - MB,16281,-96.8551595686107,32.8804902353798
"POINT (-96.8550846169405 32.8604562248093)",LEMMON @ NORTHWEST - S - FS,16293,-96.8550846169405,32.8604562248093
"POINT (-96.8169917282874 32.8215611524625)",LEMMON @ DALLAS N TOLLWAY - S - NS,16308,-96.8169917282874,32.8215611524625
"POINT (-96.7981898350942 32.7882891176006)",PEARL @ ROSS - S - NS,16317,-96.7981898350942,32.7882891176006
"POINT (-96.8064857586079 32.8128291345045)",LEMMON @ REAGAN - N - NS,16323,-96.8064857586079,32.8128291345045
"POINT (-96.8550156144834 32.861482225798)",MARSH @ NORTHWEST - N - FS,16340,-96.8550156144834,32.861482225798
"POINT (-96.8355158305388 32.7786381609112)",SINGLETON @ SYLVAN - W - NS,16359,-96.8355158305388,32.7786381609112
"POINT (-96.8761797815812 32.7854782155908)",BICKERS @ FUREY - W - MB,16382,-96.8761797815812,32.7854782155908
"POINT (-96.8772787823079 32.7845802159476)",GALLAGHER @ FUREY - E - NS,16383,-96.8772787823079,32.7845802159476
"POINT (-96.8572268117542 32.778807187679)",SINGLETON @ HAMPTON - W - FS,16409,-96.8572268117542,32.778807187679
"POINT (-96.8567288836434 32.7473521734412)",HAMPTON @ JEFFERSON - N - NS,16433,-96.8567288836434,32.7473521734412
"POINT (-96.8478907339621 32.8134741919615)",INWOOD @ SOUTHWESTERN MEDICAL - S - FS,16450,-96.8478907339621,32.8134741919615
"POINT (-96.8721727148881 32.816403227725)",MOCKINGBIRD @ ENVOY - S - FS,16453,-96.8721727148881,32.816403227725
"POINT (-96.8566408104405 32.7797791880886)",HAMPTON @ SINGLETON - S - MB,16459,-96.8566408104405,32.7797791880886
"POINT (-96.782612997247 32.6533640952727)",LANCASTER @ PLAZA - N - NS,16588,-96.782612997247,32.6533640952727
"POINT (-96.7764489931384 32.6747600875531)",PALL MALL @ TRACY - E - NS,16600,-96.7764489931384,32.6747600875531
"POINT (-96.7598920012065 32.6744270695836)",HIGHLAND HILLS @ SIMPSON STUART - S - NS,16676,-96.7598920012065,32.6744270695836
"POINT (-96.850041978406 32.648141170509)",INDIAN RIDGE @ WHEATLAND - N - FS,16696,-96.850041978406,32.648141170509
"POINT (-96.8504519663797 32.6618951700893)",INDIAN RIDGE @ CAMP WISDOM - N - NS,16703,-96.8504519663797,32.6618951700893
"POINT (-96.8521479393322 32.690954170263)",MARK TRAIL @ LEDBETTER - N - NS,16719,-96.8521479393322,32.690954170263
"POINT (-96.8395589363116 32.7057621556057)",KIEST @ POLK - E - FS,16730,-96.8395589363116,32.7057621556057
"POINT (-96.8522929391736 32.6906451706897)",MARK TRAIL @ CANELO - S - NS,16748,-96.8522929391736,32.6906451706897
"POINT (-96.7877558100128 32.7991661058317)",WASHINGTON @ MUNGER - E- FS,16774,-96.7877558100128,32.7991661058317
"POINT (-96.8889667601941 32.7907772348385)",BERNAL @ GENTRY - E - NS,16783,-96.8889667601941,32.7907772348385
"POINT (-96.8886387593649 32.7908642349103)",BERNAL @ GENTRY - W - NS,16802,-96.8886387593649,32.7908642349103
"POINT (-96.9144647781825 32.7710512531568)",BERNAL @ WALTON WALKER - S - NS,16808,-96.9144647781825,32.7710512531568
"POINT (-96.8360578312764 32.7784931621164)",SINGLETON @ SYLVAN - E - NS,16820,-96.8360578312764,32.7784931621164
"POINT (-96.8346528320656 32.7785071599184)",SINGLETON @ TOPEKA - E - NS,16821,-96.8346528320656,32.7785071599184
"POINT (-96.7029906901641 32.833349056804)",GARLAND @ BUCKNER - S - FS,16840,-96.7029906901641,32.833349056804
"POINT (-96.7029446913379 32.8330590568238)",GARLAND @ BUCKNER - N - MB,16885,-96.7029446913379,32.8330590568238
"POINT (-96.6834505603825 32.8714460576973)",MCCREE @ JUPITER - E - NS,16941,-96.6834505603825,32.8714460576973
"POINT (-96.7005895896752 32.8647780580879)",PLANO @ NORTHWEST - S - NS,16984,-96.7005895896752,32.8647780580879
"POINT (-96.8399599353296 32.7055981562864)",POLK @ KIEST - N - NS,17045,-96.8399599353296,32.7055981562864
"POINT (-96.8402149359731 32.7051481565959)",POLK @ KIEST - S - FS,17050,-96.8402149359731,32.7051481565959
"POINT (-96.8346479727473 32.662039152176)",CAMP WISDOM @ RACINE - E - NS,17067,-96.8346479727473,32.662039152176
"POINT (-96.8301449322977 32.7208001450107)",ZANG @ ILLINOIS - N - FS,17081,-96.8301449322977,32.7208001450107
"POINT (-96.8228129230088 32.7438211356969)",BECKLEY @ JEFFERSON - N - FS,17089,-96.8228129230088,32.7438211356969
"POINT (-96.8304129317106 32.7215601454613)",ZANG @ ILLINOIS - S - MB,17096,-96.8304129317106,32.7215601454613
"POINT (-96.8996447121995 32.8102632616203)",LESTON @ REGAL - E - FS,17108,-96.8996447121995,32.8102632616203
"POINT (-96.8740547329315 32.8078792258146)",IRVING @ MOCKINGBIRD - E - NS,17112,-96.8740547329315,32.8078792258146
"POINT (-96.8438767626015 32.8032321823967)",IRVING @ MEDICAL DISTRICT - S - NS,17120,-96.8438767626015,32.8032321823967
"POINT (-96.8157398326821 32.7841661386358)",RIVERFRONT @ CONTINENTAL - N - FS,17139,-96.8157398326821,32.7841661386358
"POINT (-96.8434647627808 32.802949181394)",IRVING @ MEDICAL DISTRICT - N - NS,17149,-96.8434647627808,32.802949181394
"POINT (-96.8733727327351 32.8080842247456)",IRVING @ MOCKINGBIRD - W - NS,17157,-96.8733727327351,32.8080842247456
"POINT (-96.7135697967022 32.8022540558701)",FERGUSON @ HIGHLAND - S - NS,17183,-96.7135697967022,32.8022540558701
"POINT (-96.7141117994117 32.8015080554912)",FERGUSON @ HIGHLAND - N - NS,17195,-96.7141117994117,32.8015080554912
"POINT (-96.6645796365234 32.842678057034)",FERGUSON @ SHILOH - S - NS,17220,-96.6645796365234,32.842678057034
"POINT (-96.6678896386966 32.8427330564217)",CENTERVILLE @ SHILOH - E - MB,17244,-96.6678896386966,32.8427330564217
"POINT (-96.6785707108033 32.8214130558404)",FERGUSON @ OATES - N - NS,17276,-96.6785707108033,32.8214130558404
"POINT (-96.6362986168605 32.8434870564271)",WOODMEADOW @ LA PRADA - W - FS,17322,-96.6362986168605,32.8434870564271
"POINT (-96.6835499358289 32.7344220546089)",LAKE JUNE @ BUCKNER - W - FS,17323,-96.6835499358289,32.7344220546089
"POINT (-96.6848489372113 32.7341270543019)",LAKE JUNE @ GARDENVIEW - E - NS,17351,-96.6848489372113,32.7341270543019
"POINT (-96.6485189011829 32.7365770534575)",MASTERS @ TOKOWA - S - NS,17362,-96.6485189011829,32.7365770534575
"POINT (-96.6569049098814 32.7338070543873)",ST AUGUSTINE @ LAKE JUNE - N - NS,17378,-96.6569049098814,32.7338070543873
"POINT (-96.6742299267218 32.7336780546558)",HOLCOMB @ LAKE JUNE - N - NS,17412,-96.6742299267218,32.7336780546558
"POINT (-96.8826809341277 32.6782512049884)",WESTMORELAND @ LOVE BIRD - N - NS,17435,-96.8826809341277,32.6782512049884
"POINT (-96.8555659375958 32.691144174017)",LEDBETTER @ MARK TRAIL - E - MB,17443,-96.8555659375958,32.691144174017
"POINT (-96.8306599544043 32.689642146887)",LEDBETTER @ VILLAGE FAIR - E - MB,17447,-96.8306599544043,32.689642146887
"POINT (-96.8147179677113 32.6836901292093)",LEDBETTER @ MARSALIS - E - NS,17452,-96.8147179677113,32.6836901292093
"POINT (-96.7712389906047 32.6948330805998)",LEDBETTER @ BONNIE VIEW - E - FS,17463,-96.7712389906047,32.6948330805998
"POINT (-96.7000629532337 32.7195260555026)",JIM MILLER @ ELAM - N - NS,17466,-96.7000629532337,32.7195260555026
"POINT (-96.6827339351747 32.7351480544622)",BUCKNER @ LAKE JUNE - N - FS,17470,-96.6827339351747,32.7351480544622
"POINT (-96.6825618743709 32.7690980545057)",BUCKNER @ MILITARY - N - NS,17473,-96.6825618743709,32.7690980545057
"POINT (-96.684399723856 32.8184490559854)",PEAVY @ FERGUSON - N - NS,17479,-96.684399723856,32.8184490559854
"POINT (-96.684498724028 32.8183830560554)",PEAVY @ FERGUSON - S - FS,17485,-96.684498724028,32.8183830560554
"POINT (-96.6837377587545 32.8068860553023)",JOHN WEST @ BUCKNER - E - MB,17489,-96.6837377587545,32.8068860553023
"POINT (-96.6828508460448 32.778440054499)",BUCKNER @ FORNEY - S - NS,17493,-96.6828508460448,32.778440054499
"POINT (-96.6830119355821 32.7347420541127)",BUCKNER @ LAKE JUNE - S - NS,17498,-96.6830119355821,32.7347420541127
"POINT (-96.7601259969027 32.6984540684704)",GRT TRINTY @ WADSWORTH - W - NS,17506,-96.7601259969027,32.6984540684704
"POINT (-96.7728939892135 32.6942530822569)",LEDBETTER @ SUNNYVALE - W - FS,17509,-96.7728939892135,32.6942530822569
"POINT (-96.8141529678349 32.6839041292357)",LEDBETTER @ MARSALIS - W - NS,17516,-96.8141529678349,32.6839041292357
"POINT (-96.8568549362229 32.6913541754892)",LEDBETTER @ HAMPTON - W - NS,17522,-96.8568549362229,32.6913541754892
"POINT (-96.9470959520523 32.6469742770988)",COUNTY VIEW @ WHEATLAND - N - NS,17541,-96.9470959520523,32.6469742770988
"POINT (-96.8815509538428 32.6617412046393)",WESTMORELAND @ CAMP WISDOM - N - NS,17542,-96.8815509538428,32.6617412046393
"POINT (-96.8822299546499 32.6607262052744)",WESTMORELAND @ PREFERRED - S - NS,17543,-96.8822299546499,32.6607262052744
"POINT (-96.9014618617586 32.7265162239262)",MOUNTAIN VIEW CC,17601,-96.9014618617586,32.7265162239262
"POINT (-96.8916038796023 32.719515212909)",COCKRELL HILL @ ILLINOIS - S - FS,17667,-96.8916038796023,32.719515212909
"POINT (-96.7529336603368 32.8511520625284)",ABRAMS @ LOVERS - S - NS,17750,-96.7529336603368,32.8511520625284
"POINT (-96.7527286590564 32.8516000620948)",ABRAMS @ TOWN HILL - N - NS,17751,-96.7527286590564,32.8516000620948
"POINT (-96.7692234177683 32.926374096294)",COIT @ ALPHA - S - FS,17835,-96.7692234177683,32.926374096294
"POINT (-96.8033748580043 32.7789231214792)",COMMERCE @ GRIFFIN - E - MB,17981,-96.8033748580043,32.7789231214792
"POINT (-96.7004869537497 32.719732054954)",ELAM @ JIM MILLER - E - NS,17996,-96.7004869537497,32.719732054954
"POINT (-96.683160937552 32.7081020555245)",MURDOCK @ KOMALTY - S - NS,18004,-96.683160937552,32.7081020555245
"POINT (-96.9170198179502 32.7472432405182)",WALTON WALKER @ JEFFERSON - N - NS,18008,-96.9170198179502,32.7472432405182
"POINT (-96.8126409122875 32.7563131264919)",EWING @ SABINE - N - FS,18029,-96.8126409122875,32.7563131264919
"POINT (-96.8226369232661 32.7436801355772)",JEFFERSON @ BECKLEY - W - NS,18040,-96.8226369232661,32.7436801355772
"POINT (-96.761220382478 32.9361090822073)",ESPERANZA @ MIDPARK - S - FS,18081,-96.761220382478,32.9361090822073
"POINT (-96.802741853158 32.7807251215115)",ELM @ GRIFFIN - W - MB,18116,-96.802741853158,32.7807251215115
"POINT (-96.7454596160603 32.8640390588968)",SKILLMAN @ LARMANDA - N - FS,18129,-96.7454596160603,32.8640390588968
"POINT (-96.7204284084271 32.9238880607282)",WALNUT @ AUDELIA - E - MB2,18135,-96.7204284084271,32.9238880607282
"POINT (-96.7182434510342 32.910498059662)",AUDELIA @ FOREST - S - MB2,18140,-96.7182434510342,32.910498059662
"POINT (-96.7176544550347 32.9093440601686)",AUDELIA @ FOREST - N - NS,18146,-96.7176544550347,32.9093440601686
"POINT (-96.7339294136559 32.9236390608468)",RICHLAND CC,18152,-96.7339294136559,32.9236390608468
"POINT (-96.7197614885517 32.8991940594635)",WHITEHURST @ SKILLMAN - E - MB3,18157,-96.7197614885517,32.8991940594635
"POINT (-96.7197314884553 32.8992940598608)",WHITEHURST @ SKILLMAN - W - FS,18166,-96.7197314884553,32.8992940598608
"POINT (-96.7411595180194 32.8927350594483)",ABRAMS @ ROYAL - S - FS,18192,-96.7411595180194,32.8927350594483
"POINT (-96.7409415185319 32.8926750597663)",ABRAMS @ ROYAL - N - NS,18202,-96.7409415185319,32.8926750597663
"POINT (-96.8182424555563 32.9212581865438)",DALLAS N TOLLWAY @ HARVEST HILL - N,18251,-96.8182424555563,32.9212581865438
"POINT (-96.804249273069 32.9827891772285)",PRESTON @ CAMPBELL - N - NS,18299,-96.804249273069,32.9827891772285
"POINT (-96.8808945094668 32.9083692943749)",JOSEY @ FOREST - S - FS,18303,-96.8808945094668,32.9083692943749
"POINT (-96.8905076088758 32.8623062827415)",SHADY TRAIL @ WILLOWBROOK - N - FS,18324,-96.8905076088758,32.8623062827415
"POINT (-96.8911384178369 32.9537873422627)",BELT LINE @ JOSEY - W - FS,18354,-96.8911384178369,32.9537873422627
"POINT (-96.8821534749164 32.9245473068605)",VALLEY VIEW @ JOSEY - W - FS,18378,-96.8821534749164,32.9245473068605
"POINT (-96.8808945091344 32.9086012953845)",JOSEY @ FOREST - N - MB,18441,-96.8808945091344,32.9086012953845
"POINT (-96.7357104619652 32.9090350599165)",FOREST @ ABRAMS - E - NS,18473,-96.7357104619652,32.9090350599165
"POINT (-96.8038378526371 32.7804961222088)",ELM @ LAMAR - W - NS,18526,-96.8038378526371,32.7804961222088
"POINT (-96.954146473954 32.9463764607439)",MACARTHUR @ COWBOY - S - FS,18531,-96.954146473954,32.9463764607439
"POINT (-97.0021335956767 32.8634054622813)",ESTERS @ CHEYENNE - S - NS,18540,-97.0021335956767,32.8634054622813
"POINT (-96.9353996887414 32.8121773119986)",IRVING @ 3RD - W - FS,18555,-96.9353996887414,32.8121773119986
"POINT (-96.8483327157745 32.8206761964093)",HARRY HINES @ EXCHANGE - S - NS,18561,-96.8483327157745,32.8206761964093
"POINT (-96.8376207421457 32.8123761780556)",HARRY HINES @ BUTLER - N - MB,18566,-96.8376207421457,32.8123761780556
"POINT (-96.8737907298138 32.8090372254319)",MOCKINGBIRD @ IRVING - S - MB,18571,-96.8737907298138,32.8090372254319
"POINT (-96.8735627306694 32.8086562251115)",MOCKINGBIRD @ IRVING - N - FS,18572,-96.8735627306694,32.8086562251115
"POINT (-97.0354665978066 32.8618375177109)",DFW REMOTE SOUTH PARKING,18594,-97.0354665978066,32.8618375177109
"POINT (-96.9766515948729 32.8662204240277)",WALNUT HILL @ STORY - E - FS,18604,-96.9766515948729,32.8662204240277
"POINT (-96.9654895643622 32.8878114267226)",EXECUTIVE @ CORPORATE - N - FS,18615,-96.9654895643622,32.8878114267226
"POINT (-96.977946594641 32.8664204258028)",WALNUT HILL @ STORY - W - FS,18622,-96.977946594641,32.8664204258028
"POINT (-96.9765636431195 32.829666386982)",STORY @ GRAUWYLER - S - MB,18649,-96.9765636431195,32.829666386982
"POINT (-96.9763376434897 32.829765386657)",STORY @ GRAUWYLER - N - FS,18661,-96.9763376434897,32.829765386657
"POINT (-96.873943796676 32.7791792091397)",WESTMORELAND @ SINGLETON - S - NS,18703,-96.873943796676,32.7791792091397
"POINT (-96.8741888625249 32.7491741923564)",WESTMORELAND @ DAVIS - S - FS,18706,-96.8741888625249,32.7491741923564
"POINT (-96.8739908633339 32.749029192181)",WESTMORELAND @ DAVIS - N - NS,18738,-96.8739908633339,32.749029192181
"POINT (-96.9511536304539 32.8445603631813)",OCONNOR @ ROCHELLE - N - FS,18765,-96.9511536304539,32.8445603631813
"POINT (-96.9342096704418 32.8233663204503)",NURSERY @ UNION BOWER - N - FS,18818,-96.9342096704418,32.8233663204503
"POINT (-96.9198806389383 32.8441483155451)",NORTHGATE @ SCIENCE - E - FS,18827,-96.9198806389383,32.8441483155451
"POINT (-96.97520164404 32.8289273843843)",GRAUWYLER @ BRADFORD - E - MB,18830,-96.97520164404,32.8289273843843
"POINT (-96.9749346441003 32.8290213838765)",GRAUWYLER @ STORY - W - MB,18872,-96.9749346441003,32.8290213838765
"POINT (-96.9777536814024 32.8003923592905)",SHADY GROVE @ STORY - E - MB,18892,-96.9777536814024,32.8003923592905
"POINT (-96.9776886803411 32.800500358976)",SHADY GROVE @ STORY - W - FS,18909,-96.9776886803411,32.800500358976
"POINT (-97.0095186300859 32.8326814419426)",ESTERS @ PIONEER - N - NS,18922,-97.0095186300859,32.8326814419426
"POINT (-96.9596987033356 32.7934893285937)",MACARTHUR @ OAKDALE - S - FS,18944,-96.9596987033356,32.7934893285937
"POINT (-96.9769036814216 32.8008213581492)",STORY @ SHADY GROVE - N - FS,18953,-96.9769036814216,32.8008213581492
"POINT (-96.8499494586749 32.9251912472913)",VALLEY VIEW @ CRESTPARK - E - FS,18998,-96.8499494586749,32.9251912472913
"POINT (-96.8217214057716 32.940118200007)",DALLAS N TOLLWAY @ SPRING VALLEY - N - FS,19008,-96.8217214057716,32.940118200007
"POINT (-96.8504614584988 32.9254052479056)",VALLEY VIEW @ CRESTPARK - W - FS,19012,-96.8504614584988,32.9254052479056
"POINT (-96.8897523747573 32.9741003524119)",JOSEY @ KELLER SPRINGS - N - FS,19071,-96.8897523747573,32.9741003524119
"POINT (-96.8868102851582 33.0114373669871)",JOSEY @ ROSEMEADE - N - NS,19081,-96.8868102851582,33.0114373669871
"POINT (-96.8842132332932 33.0285813681735)",JOSEY @ CHEYENNE - S - FS,19087,-96.8842132332932,33.0285813681735
"POINT (-96.8870892836579 33.0118683679927)",JOSEY @ ROSEMEADE - S - NS,19092,-96.8870892836579,33.0118683679927
"POINT (-96.8900463767543 32.9728943526189)",JOSEY @ KELLER SPRINGS - S - FS,19103,-96.8900463767543,32.9728943526189
"POINT (-96.8663983013697 32.9967473159411)",KELLY @ FRANKFORD - S - FS,19138,-96.8663983013697,32.9967473159411
"POINT (-96.8547873535325 32.9696002772886)",MARSH @ BALLANTRAE - S - MB,19156,-96.8547873535325,32.9696002772886
"POINT (-96.8542093932813 32.9530192688681)",BELT LINE @ MARSH - E - FS,19161,-96.8542093932813,32.9530192688681
"POINT (-96.8666503009725 32.9971443166622)",FRANKFORD @ KELLY - W - FS,19192,-96.8666503009725,32.9971443166622
"POINT (-96.8475002474928 33.0092752817094)",LINA @ ROSEMEADE - S - FS,19225,-96.8475002474928,33.0092752817094
"POINT (-96.718461112226 33.0193090767633)",15TH @ BRENTWOOD - E - NS,19278,-96.718461112226,33.0193090767633
"POINT (-96.8044972732069 32.9827031776937)",PRESTON @ CAMPBELL - S - FS,19303,-96.8044972732069,32.9827031776937
"POINT (-96.7682462538384 32.9778341003975)",COIT @ CAMPBELL - S - FS,19334,-96.7682462538384,32.9778341003975
"POINT (-96.7690024333442 32.921567095928)",COIT @ BANNER - N - FS,19350,-96.7690024333442,32.921567095928
"POINT (-96.7680172496467 32.978956100547)",COIT @ CAMPBELL - N - FS,19370,-96.7680172496467,32.978956100547
"POINT (-96.732503057701 33.0409210950055)",PARKER @ CUSTER - E - FS,19391,-96.732503057701,33.0409210950055
"POINT (-96.7935151423621 33.0269561766907)",PARK @ PRESTON PARK - E - MB1,19401,-96.7935151423621,33.0269561766907
"POINT (-96.769009336771 32.9520470993397)",COIT @ BELT LINE - S - MB,19421,-96.769009336771,32.9520470993397
"POINT (-96.7722062252535 32.9879891105738)",MCCALLUM @ DICKERSON - W - MB2,19431,-96.7722062252535,32.9879891105738
"POINT (-96.7928971409406 33.0271541758675)",PARK @ PRESTON - W - MB2,19445,-96.7928971409406,33.0271541758675
"POINT (-96.7358672892404 32.9616900614026)",ARAPAHO @ CUSTER - E - MB,19504,-96.7358672892404,32.9616900614026
"POINT (-96.7699313051589 32.9621711025262)",ARAPAHO @ COIT - W - FS,19519,-96.7699313051589,32.9621711025262
"POINT (-96.7336472433266 32.9754040621631)",CAMPBELL @ CUSTER - E - FS,19552,-96.7336472433266,32.9754040621631
"POINT (-96.7346012426187 32.9757550620479)",CAMPBELL @ CUSTER - W - FS,19579,-96.7346012426187,32.9757550620479
"POINT (-96.7696423763825 32.9397220990866)",SPRING VALLEY @ PEYTON - E - FS,19619,-96.7696423763825,32.9397220990866
"POINT (-96.683002335075 32.9443060611832)",JUPITER @ VILLAGE NORTH - S - MB,19665,-96.683002335075,32.9443060611832
"POINT (-96.6497203685081 32.9308420605365)",BUCKINGHAM @ GARLAND - W - FS,19695,-96.6497203685081,32.9308420605365
"POINT (-96.7000013380977 32.9446730608176)",PLANO @ BELT LINE - S - FS,19714,-96.7000013380977,32.9446730608176
"POINT (-96.6651504110396 32.9177910597595)",SHILOH @ LAKEWOOD - N - FS,19720,-96.6651504110396,32.9177910597595
"POINT (-96.6836994189986 32.9172790595938)",WALNUT @ JUPITER - W - FS,19729,-96.6836994189986,32.9172790595938
"POINT (-96.6997503395839 32.9439020613002)",PLANO @ BELT LINE - N - MB2,19735,-96.6997503395839,32.9439020613002
"POINT (-96.7348144114894 32.9244630603985)",WALNUT @ ABRAMS - E - FS,19754,-96.7348144114894,32.9244630603985
"POINT (-96.6825224192065 32.9171350601974)",WALNUT @ JUPITER - E - FS,19762,-96.6825224192065,32.9171350601974
"POINT (-96.7187934099782 32.9233680602196)",WALNUT @ AUDELIA - W - FS,19776,-96.7187934099782,32.9233680602196
"POINT (-96.7354454118198 32.9243310608644)",WALNUT @ ABRAMS - W - NS,19779,-96.7354454118198,32.9243310608644
"POINT (-96.6818431138612 33.0179720742259)",14TH @ JUPITER - E - FS,19802,-96.6818431138612,33.0179720742259
"POINT (-96.6827712623114 32.9681160616493)",JUPITER @ COLLINS - S - NS,19808,-96.6827712623114,32.9681160616493
"POINT (-96.682400488423 32.8944110592754)",MILLER @ JUPITER - E - FS,19819,-96.682400488423,32.8944110592754
"POINT (-96.6648315289031 32.8787700583106)",KINGSLEY @ SHILOH - E - FS,19827,-96.6648315289031,32.8787700583106
"POINT (-96.66510552854 32.8789610583554)",KINGSLEY @ SHILOH - W - NS,19829,-96.66510552854,32.8789610583554
"POINT (-96.648213479639 32.8927470586423)",SATURN @ SHARON - N - NS,19887,-96.648213479639,32.8927470586423
"POINT (-96.620710509989 32.8780570580215)",BROADWAY @ CENTERVILLE - S - FS,19901,-96.620710509989,32.8780570580215
"POINT (-96.6205875092909 32.8782480577775)",BROADWAY @ WILLIAM A TAYLOR - N - FS,19936,-96.6205875092909,32.8782480577775
"POINT (-96.6310095114836 32.8793080579674)",1ST @ KINGSLEY - S - NS,19953,-96.6310095114836,32.8793080579674
"POINT (-96.8887404173184 32.9535473371531)",BELT LINE @ JOSEY - E - FS,20030,-96.8887404173184,32.9535473371531
"POINT (-96.7672203377968 32.9510620957095)",BELT LINE @ COIT - E - FS,20043,-96.7672203377968,32.9510620957095
"POINT (-96.7013133349701 32.9454770606065)",BELT LINE @ GLENVILLE - W - MB,20094,-96.7013133349701,32.9454770606065
"POINT (-96.7697363400078 32.950912100766)",BELT LINE @ COIT - W - FS,20108,-96.7697363400078,32.950912100766
"POINT (-96.8551933936601 32.9532732709724)",BELT LINE @ MARSH - W - NS,20121,-96.8551933936601,32.9532732709724
"POINT (-96.7578869201502 32.7717300649173)",FITZHUGH @ 2ND - W - FS,20128,-96.7578869201502,32.7717300649173
"POINT (-97.0078706298187 32.8327664388576)",PIONEER @ ESTERS - W - MB,20139,-97.0078706298187,32.8327664388576
"POINT (-96.9586616506643 32.8291793607799)",GRAUWYLER @ MACARTHUR - E - FS,20156,-96.9586616506643,32.8291793607799
"POINT (-96.873700795598 32.7797032090033)",WESTMORELAND @ PUEBLO - N - MB,20172,-96.873700795598,32.7797032090033
"POINT (-97.0108875243172 32.9279615455657)",FREEPORT @ ESTERS - N - MB,20230,-97.0108875243172,32.9279615455657
"POINT (-96.9908645404138 32.9109594943792)",ROYAL @ BENT BRANCH - E - FS,20238,-96.9908645404138,32.9109594943792
"POINT (-96.9195056383528 32.844471315394)",NORTHGATE @ SCIENCE - W - NS,20245,-96.9195056383528,32.844471315394
"POINT (-96.9343086746017 32.8211573183801)",NURSERY @ ELWOOD - S - MB,20248,-96.9343086746017,32.8211573183801
"POINT (-96.8819474756808 32.9243563067205)",VALLEY VIEW @ JOSEY - E - NS,20274,-96.8819474756808,32.9243563067205
"POINT (-96.8501734520893 32.9278012484687)",BROOKHAVEN CC,20277,-96.8501734520893,32.9278012484687
"POINT (-96.6201523611353 32.9307380600119)",MARS @ BUCKINGHAM - N - NS,20384,-96.6201523611353,32.9307380600119
"POINT (-96.664643330969 32.944590060741)",BELT LINE @ SHILOH - E - FS,20395,-96.664643330969,32.944590060741
"POINT (-96.7941948550787 32.7825021106856)",ELM @ HARWOOD - W - NS,20431,-96.7941948550787,32.7825021106856
"POINT (-96.8032358555942 32.7797601219831)",MAIN @ GRIFFIN - E - NS,20444,-96.8032358555942,32.7797601219831
"POINT (-96.8227439515299 32.7010051375464)",OVERTON @ BECKLEY - W - NS,20468,-96.8227439515299,32.7010051375464
"POINT (-96.8345619442 32.699869150434)",FAWN VALLEY @ BOW AND ARROW - S - M,20471,-96.8345619442,32.699869150434
"POINT (-96.8397879447223 32.6949631571041)",PENTAGON @ POLK - W - NS,20475,-96.8397879447223,32.6949631571041
"POINT (-96.8232629477201 32.7058161382512)",KIEST @ BECKLEY - E - NS,20478,-96.8232629477201,32.7058161382512
"POINT (-96.8938579074753 32.69542121661)",EXCHANGE SERVICE @ WALTON WALKER - E - FS,20496,-96.8938579074753,32.69542121661
"POINT (-96.8564738144647 32.777955187083)",HAMPTON @ SINGLETON - N - MB,20515,-96.8564738144647,32.777955187083
"POINT (-96.8024268650258 32.7766811198457)",YOUNG @ GRIFFIN - E - NS,20529,-96.8024268650258,32.7766811198457
"POINT (-96.6837665600237 32.8715340578111)",MCCREE @ JUPITER - W - FS,20536,-96.6837665600237,32.8715340578111
"POINT (-96.70143650877 32.8905350593741)",MARKISON @ PLANO - W - FS,20544,-96.70143650877,32.8905350593741
"POINT (-96.7007195085193 32.8904430589842)",MARKISON @ PLANO - E - NS,20549,-96.7007195085193,32.8904430589842
"POINT (-96.6653546405542 32.8417820567354)",FERGUSON @ MAYLEE - N - MB,20576,-96.6653546405542,32.8417820567354
"POINT (-96.7602819970806 32.6981830686149)",GRT TRINTY @ WADSWORTH - E - NS,20598,-96.7602819970806,32.6981830686149
"POINT (-96.9088248634803 32.7202382319316)",DUNCANVILLE @ ILLINOIS - S - FS,20646,-96.9088248634803,32.7202382319316
"POINT (-96.8840619525999 32.6616302070379)",AMERICAN WAY @ CAMP WISDOM - N - NS,20671,-96.8840619525999,32.6616302070379
"POINT (-96.6308265108282 32.8792550582896)",1ST @ KINGSLEY - N - FS,20676,-96.6308265108282,32.8792550582896
"POINT (-96.6826803365826 32.9438670609076)",JUPITER @ GREENVIEW - N - FS,20680,-96.6826803365826,32.9438670609076
"POINT (-96.7989168684432 32.7763841156746)",MARILLA @ AKARD - W - FS,20685,-96.7989168684432,32.7763841156746
"POINT (-97.0018895961766 32.8632604616979)",ESTERS @ CHEYENNE - E - FS,20716,-97.0018895961766,32.8632604616979
"POINT (-96.9514116301022 32.8445243640612)",OCONNOR @ ROCHELLE - S - NS,20736,-96.9514116301022,32.8445243640612
"POINT (-96.8543523532055 32.9696822764949)",MARSH @ KELLER SPRINGS - N - MB,20785,-96.8543523532055,32.9696822764949
"POINT (-96.7120561244182 33.0144550736064)",COLLIN CREEK MALL @ SEARS - S - NS,20814,-96.7120561244182,33.0144550736064
"POINT (-96.8429760564095 33.0779663073804)",FRITO LAY HQ,20826,-96.8429760564095,33.0779663073804
"POINT (-96.6823771148443 33.0177660740429)",JUPITER @ 14TH - N - NS,20873,-96.6823771148443,33.0177660740429
"POINT (-96.6824902595751 32.9688870618497)",JUPITER @ COLLINS - N - FS,20883,-96.6824902595751,32.9688870618497
"POINT (-96.6606405255519 32.8789700581499)",KINGSLEY @ GARLAND - W - FS,20885,-96.6606405255519,32.8789700581499
"POINT (-96.6611655270218 32.8787400583311)",KINGSLEY @ GARLAND - E - NS,20886,-96.6611655270218,32.8787400583311
"POINT (-96.6136444031262 32.914777058948)",COUNTRY CLUB @ WALNUT - N - FS,20903,-96.6136444031262,32.914777058948
"POINT (-96.9184315443982 32.896004353026)",LUNA @ ROYAL - N - FS,20913,-96.9184315443982,32.896004353026
"POINT (-96.9188045442413 32.8957643532149)",LUNA @ ROYAL - S - NS,20914,-96.9188045442413,32.8957643532149
"POINT (-96.7015733356274 32.9452780611218)",BELT LINE @ PLANO - E - MB,20928,-96.7015733356274,32.9452780611218
"POINT (-96.7343389353984 32.7649540545967)",DIXON @ BARBER - N - NS,20966,-96.7343389353984,32.7649540545967
"POINT (-96.7958588571726 32.7812471124048)",MAIN @ ST PAUL - E - NS,20997,-96.7958588571726,32.7812471124048
"POINT (-96.8445869157385 32.7247481604319)",EDGEFIELD @ BERKLEY - N - NS,21009,-96.8445869157385,32.7247481604319
"POINT (-96.8736857153605 32.8158432298413)",AMBASSADOR @ MOCKINGBIRD - W - FS,21012,-96.8736857153605,32.8158432298413
"POINT (-96.7708569349503 32.7632540790421)",EDGEWOOD @ BIRMINGHAM - S - NS,21013,-96.7708569349503,32.7632540790421
"POINT (-96.7704519355716 32.7632420791554)",BIRMINGHAM @ EDGEWOOD - S - NS,21014,-96.7704519355716,32.7632420791554
"POINT (-96.7953928572511 32.7815261123502)",MAIN @ ST PAUL - W - NS,21020,-96.7953928572511,32.7815261123502
"POINT (-96.802601855695 32.7799451212726)",MAIN @ GRIFFIN - W - NS,21024,-96.802601855695,32.7799451212726
"POINT (-96.7611203818089 32.9362730825627)",ESPERANZA @ MIDPARK - N - NS,21065,-96.7611203818089,32.9362730825627
"POINT (-96.8659419158114 32.7059611856709)",PIERCE @ PENTAGON - S - NS,21089,-96.8659419158114,32.7059611856709
"POINT (-96.8661169153871 32.7057201852841)",PENTAGON @ PIERCE - E - NS,21090,-96.8661169153871,32.7057201852841
"POINT (-96.8336457863929 32.7963731658965)",WYCLIFF @ IRVING - N - FS,21101,-96.8336457863929,32.7963731658965
"POINT (-96.8356628302008 32.7790091612749)",SYLVAN @ SINGLETON - N - FS,21104,-96.8356628302008,32.7790091612749
"POINT (-96.8358908315721 32.7781681615978)",SYLVAN @ SINGLETON - S - FS,21105,-96.8358908315721,32.7781681615978
"POINT (-96.6683726637703 32.8347040561213)",GUS THOMASSON @ SHILOH - E - NS,21142,-96.6683726637703,32.8347040561213
"POINT (-96.683010624335 32.8503280572684)",JUPITER @ GARLAND - N - FS,21152,-96.683010624335,32.8503280572684
"POINT (-96.700410594737 32.8631680577527)",LAKE HIGHLANDS @ NORTHWEST - N - MB,21156,-96.700410594737,32.8631680577527
"POINT (-96.9107413460386 32.998611413873)",FRANKFORD @ OLD DENTON - E - MB,21195,-96.9107413460386,32.998611413873
"POINT (-96.8467867334308 32.8138331909001)",INWOOD @ SOUTHWESTERN MEDICAL - N - FS,21209,-96.8467867334308,32.8138331909001
"POINT (-96.7466228635497 32.7899860558286)",CULVER @ WINSLOW - E - NS,21211,-96.7466228635497,32.7899860558286
"POINT (-96.7463358629792 32.790044056126)",CULVER @ WINSLOW - W - NS,21212,-96.7463358629792,32.790044056126
"POINT (-96.6287434345897 32.905782058672)",GARLAND HEALTH CLINIC XXXX,21379,-96.6287434345897,32.905782058672
"POINT (-96.6295585994027 32.848286056675)",LA PRADA @ NORTHWEST - W - MB,21410,-96.6295585994027,32.848286056675
"POINT (-96.9772915950105 32.8660354248482)",STORY @ WALNUT HILL - S - FS,21426,-96.9772915950105,32.8660354248482
"POINT (-96.8060353334951 32.9621061755131)",ARAPAHO @ PRESTON - W - FS,21486,-96.8060353334951,32.9621061755131
"POINT (-96.8583387911592 32.7872041937198)",BICKERS @ GOLDMAN - W - FS,21488,-96.8583387911592,32.7872041937198
"POINT (-96.6995898175193 32.7921160553382)",SAMUELL @ JIM MILLER - W - NS,21515,-96.6995898175193,32.7921160553382
"POINT (-96.6992188180621 32.7919790557464)",SAMUELL @ JIM MILLER - E - FS,21516,-96.6992188180621,32.7919790557464
"POINT (-96.8445023560449 32.965105254477)",BOYINGTON @ CHENAULT - W - NS,21615,-96.8445023560449,32.965105254477
"POINT (-96.8449713559243 32.9653242554401)",CHENAULT @ BOYINGTON - S - NS,21616,-96.8449713559243,32.9653242554401
"POINT (-96.9000476114849 32.860723296898)",TECHNOLOGY W @ CONNECTOR - S - MB,21692,-96.9000476114849,32.860723296898
"POINT (-96.6825761154141 33.0172670736163)",JUPITER @ 14TH - S - FS,21772,-96.6825761154141,33.0172670736163
"POINT (-96.6201603613902 32.9305210601891)",MARS @ TWILIGHT - S - NS,21810,-96.6201603613902,32.9305210601891
"POINT (-96.8731077168116 32.8151852285542)",MOCKINGBIRD @ AMBASSADOR - N - NS,21830,-96.8731077168116,32.8151852285542
"POINT (-96.8040895204247 32.8962191533762)",PRESTON @ PRESTON ROYAL  SC - S - MB,21939,-96.8040895204247,32.8962191533762
"POINT (-96.8197223812218 32.9487131984971)",VERDE VALLEY @ NOEL - W - FS,22007,-96.8197223812218,32.9487131984971
"POINT (-96.9582266512078 32.8294013603921)",GRAUWYLER @ MACARTHUR - W - MB,22119,-96.9582266512078,32.8294013603921
"POINT (-96.8492409660016 32.6622751689372)",CAMP WISDOM @ WESTERHAM - W - NS,22125,-96.8492409660016,32.6622751689372
"POINT (-96.6397368934502 32.7195700541081)",ELAM @ CHEYENNE - W - FS,22135,-96.6397368934502,32.7195700541081
"POINT (-96.8139064010908 32.9400321841063)",MONTFORT @ SPRING VALLEY - N - FS,22191,-96.8139064010908,32.9400321841063
"POINT (-96.7632420018996 32.6606310735967)",TIOGA @ TIOGA PL - W - NS,22217,-96.7632420018996,32.6606310735967
"POINT (-96.7599240013624 32.6746120690501)",HIGHLAND HILLS @ SIMPSON STUART - N - FS,22319,-96.7599240013624,32.6746120690501
"POINT (-96.7736949890616 32.6936010831438)",LEDBETTER @ BONNIE VIEW - E - MB,22323,-96.7736949890616,32.6936010831438
"POINT (-96.9152277633151 32.7784322590705)",SINGLETON @ JIM - E - FS,22345,-96.9152277633151,32.7784322590705
"POINT (-96.8400929687664 32.6636481582235)",POLK @ CAMP WISDOM - S - MB,22360,-96.8400929687664,32.6636481582235
"POINT (-96.8397529695701 32.6637401583649)",POLK @ CAMP WISDOM - N - FS,22361,-96.8397529695701,32.6637401583649
"POINT (-96.9655585645526 32.8880974269492)",EXECUTIVE @ CORPORATE - S - MB,22372,-96.9655585645526,32.8880974269492
"POINT (-96.8237049476528 32.7059491384151)",KIEST @ BECKLEY - W - FS,22448,-96.8237049476528,32.7059491384151
"POINT (-96.6917699426376 32.7490860537571)",HILLBURN @ BRUTON - S - NS,22482,-96.6917699426376,32.7490860537571
"POINT (-96.768781344358 32.9495930982059)",COIT @ BELT LINE - N - NS,22562,-96.768781344358,32.9495930982059
"POINT (-96.7323730577731 33.0411200944537)",PARKER @ CUSTER - W - MB,22563,-96.7323730577731,33.0411200944537
"POINT (-96.7356382889075 32.9618120619563)",ARAPAHO @ HAMPSHIRE - W - MB,22573,-96.7356382889075,32.9618120619563
"POINT (-96.7703303066697 32.9618791031958)",ARAPAHO @ COIT - E - MB,22575,-96.7703303066697,32.9618791031958
"POINT (-96.7679533737072 32.94004909609)",SPRING VALLEY @ COIT - W - MB,22581,-96.7679533737072,32.94004909609
"POINT (-96.804860416277 32.9329031648023)",ALPHA @ PRESTON - W - FS,22582,-96.804860416277,32.9329031648023
"POINT (-96.7464493732906 32.9369410613513)",PRESTONWOOD @ WOODWICK - E - NS,22585,-96.7464493732906,32.9369410613513
"POINT (-96.7466173726977 32.9370590610327)",PRESTONWOOD @ WOODWICK - W - FS,22586,-96.7466173726977,32.9370590610327
"POINT (-96.8577168120739 32.7786191887886)",SINGLETON @ COOMBSVILLE - E - NS,22609,-96.8577168120739,32.7786191887886
"POINT (-96.873860878657 32.7343651932076)",CLARENDON @ WESTMORELAND - W - NS,22724,-96.873860878657,32.7343651932076
"POINT (-96.8735178791325 32.7343111924954)",CLARENDON @ WESTMORELAND - E - FS,22725,-96.8735178791325,32.7343111924954
"POINT (-96.8823629242545 32.6876702038069)",WESTMORELAND @ BRONZE - N - FS,22742,-96.8823629242545,32.6876702038069
"POINT (-96.8366679268666 32.7201131521641)",VERNON @ ILLINOIS - N - NS,22743,-96.8366679268666,32.7201131521641
"POINT (-96.8896098802553 32.7205092109153)",ILLINOIS @ COCKRELL HILL - W - MB,22768,-96.8896098802553,32.7205092109153
"POINT (-96.7592289904451 32.7431460651014)",LAMAR @ HAVEN - S - MB,22789,-96.7592289904451,32.7431460651014
"POINT (-96.7587489915014 32.7425930651038)",LAMAR @ HAVEN - N - NS,22790,-96.7587489915014,32.7425930651038
"POINT (-96.9922776211359 32.8433714248272)",BELT LINE @ GRANDE BULEVAR - N - NS,22798,-96.9922776211359,32.8433714248272
"POINT (-96.9925586212112 32.8430844241856)",BELT LINE @ GRANDE BULEVAR - S - FS,22799,-96.9925586212112,32.8430844241856
"POINT (-96.8048148503372 32.7811641237989)",LAMAR @ PACIFIC - S - NS,22820,-96.8048148503372,32.7811641237989
"POINT (-96.833578782878 32.7977701661919)",WYCLIFF @ MONITOR - S - NS,22834,-96.833578782878,32.7977701661919
"POINT (-96.8208787876765 32.799247149844)",IH 35 @ OAK LAWN - S - MB2,22896,-96.8208787876765,32.799247149844
"POINT (-96.6657386359517 32.8432750568436)",SHILOH @ CENTERVILLE - S - NS,22912,-96.6657386359517,32.8432750568436
"POINT (-96.7460606142666 32.8645690583588)",LARMANDA @ SKILLMAN - N - FS,22957,-96.7460606142666,32.8645690583588
"POINT (-96.7460306158278 32.8641910587351)",LARMANDA @ SKILLMAN - S - NS,22958,-96.7460306158278,32.8641910587351
"POINT (-96.8394217506491 32.8088241786677)",MEDICAL/MARKET CTR STATION,22972,-96.8394217506491,32.8088241786677
"POINT (-96.8501719784635 32.6481951704555)",INDIAN RIDGE @ WHEATLAND - S - NS,22975,-96.8501719784635,32.6481951704555
"POINT (-96.7466475550971 32.8823560596054)",FAIR OAKS @ WALNUT HILL - S - FS,23002,-96.7466475550971,32.8823560596054
"POINT (-96.746426554808 32.8824130596102)",FAIR OAKS @ WALNUT HILL - N - NS,23003,-96.746426554808,32.8824130596102
"POINT (-96.7656456386022 32.8570570831261)",AMESBURY @ SOUTHWESTERN - N - NS,23010,-96.7656456386022,32.8570570831261
"POINT (-96.7602140009019 32.6738870697839)",SIMPSON STUART @ HIGHLAND HILLS - E,23114,-96.7602140009019,32.6738870697839
"POINT (-96.7719925175795 32.8952880976699)",STEPPINGTON @ STONE CANYON - S - FS,23169,-96.7719925175795,32.8952880976699
"POINT (-96.7673775105371 32.8972970899305)",MANDERVILLE @ US 75 - E - FS,23183,-96.7673775105371,32.8972970899305
"POINT (-96.7504821417026 33.0085270714843)",PLANO @ INDEPENDENCE - E - NS,23206,-96.7504821417026,33.0085270714843
"POINT (-96.7498471406271 33.0087870705215)",PLANO @ INDEPENDENCE - W - NS,23231,-96.7498471406271,33.0087870705215
"POINT (-96.7006882637687 32.9680380620168)",COLLINS @ PLANO - W - FS,23306,-96.7006882637687,32.9680380620168
"POINT (-96.7002682643729 32.9678590620974)",COLLINS @ PLANO - E - NS,23307,-96.7002682643729,32.9678590620974
"POINT (-96.6573412011366 32.9874400623902)",TELECOM @ RESEARCH - W - MB2,23308,-96.6573412011366,32.9874400623902
"POINT (-96.7654929937597 32.6977860740576)",LEDBETTER @ BISMARK - W - FS,23338,-96.7654929937597,32.6977860740576
"POINT (-96.7694209848755 32.722038077888)",SOUTHERN OAKS @ OVERTON - W - FS,23353,-96.7694209848755,32.722038077888
"POINT (-96.7758539808228 32.7154750852863)",OVERTON @ BONNIE VIEW - W - NS,23356,-96.7758539808228,32.7154750852863
"POINT (-96.7659809928695 32.6974500744836)",LEDBETTER @ BISMARK - E - MB,23366,-96.7659809928695,32.6974500744836
"POINT (-96.9057207515071 32.7885792551506)",TUMALO @ LEATH - S - FS,23396,-96.9057207515071,32.7885792551506
"POINT (-96.9056557517584 32.7885572546689)",TUMALO @ LEATH - N - NS,23404,-96.9056557517584,32.7885572546689
"POINT (-96.7579399986138 32.7023330657154)",VANDERVOORT @ LEDBETTER - N - FS,23497,-96.7579399986138,32.7023330657154
"POINT (-96.9581345521309 32.89573042115)",ROYAL @ MACARTHUR - E - FS,23546,-96.9581345521309,32.89573042115
"POINT (-96.9593455524283 32.8960014234547)",ROYAL @ MACARTHUR - W - FS,23547,-96.9593455524283,32.8960014234547
"POINT (-96.8817349531548 32.6623172048023)",WESTMORELAND @ CAMP WISDOM - S - NS,23552,-96.8817349531548,32.6623172048023
"POINT (-96.7920249775371 32.6911291037069)",LANCASTER @ ATLAS - S - FS,23560,-96.7920249775371,32.6911291037069
"POINT (-97.0109225237317 32.9285485463059)",ESTERS @ FREEPORT - N - FS,23570,-97.0109225237317,32.9285485463059
"POINT (-97.011342523356 32.9288305470856)",ESTERS @ FREEPORT - S - MB,23571,-97.011342523356,32.9288305470856
"POINT (-96.9912925383054 32.9123704968442)",BENT BRANCH @ ROYAL - S - NS,23572,-96.9912925383054,32.9123704968442
"POINT (-96.9595377047588 32.7921943265894)",MACARTHUR @ OAKDALE - N - MB,23614,-96.9595377047588,32.7921943265894
"POINT (-96.8715338426885 32.7597131953833)",COLORADO @ MOULIN ROUGE - E - NS,23624,-96.8715338426885,32.7597131953833
"POINT (-96.8901644262643 32.9495673378279)",JOSEY @ CROSBY - N - FS,23635,-96.8901644262643,32.9495673378279
"POINT (-96.8903984270757 32.9493613381029)",JOSEY @ CROSBY - S - NS,23636,-96.8903984270757,32.9493613381029
"POINT (-96.8248728511359 32.7745601462967)",COMMERCE @ REPUBLIC - W - FS,23642,-96.8248728511359,32.7745601462967
"POINT (-96.6612647160331 32.8155340557344)",EASTFIELD CC,23708,-96.6612647160331,32.8155340557344
"POINT (-96.6823017645132 32.8046850552379)",BUCKNER @ JOHN WEST - N - MB,23718,-96.6823017645132,32.8046850552379
"POINT (-96.7003229535808 32.719217054988)",JIM MILLER @ ELAM - S - FS,23730,-96.7003229535808,32.719217054988
"POINT (-96.7659358780782 32.782346075858)",PARRY @ EXPOSITION - N - FS,23768,-96.7659358780782,32.782346075858
"POINT (-96.7813239403787 32.7581880908304)",LAMAR @ FOREST - S - NS,23773,-96.7813239403787,32.7581880908304
"POINT (-96.6667962859275 32.9594220613478)",ARAPAHO @ SHILOH - E - MB,23780,-96.6667962859275,32.9594220613478
"POINT (-96.6660772851116 32.9596430614633)",ARAPAHO @ SHILOH - W - FS,23781,-96.6660772851116,32.9596430614633
"POINT (-96.8738607672147 32.7922612163649)",WESTMORELAND @ CANADA - S - FS,23798,-96.8738607672147,32.7922612163649
"POINT (-96.6834386290606 32.8489430568651)",GARLAND @ JUPITER - N - NS,23836,-96.6834386290606,32.8489430568651
"POINT (-96.682767626152 32.8497370573805)",GARLAND @ JUPITER - S - NS,23837,-96.682767626152,32.8497370573805
"POINT (-96.865776975075 32.647422187234)",WHEATLAND @ OLD HICKORY - E - NS,23870,-96.865776975075,32.647422187234
"POINT (-97.0441445254561 32.9261935917873)",DFW REMOTE NORTH PARKING,23899,-97.0441445254561,32.9261935917873
"POINT (-96.7180681123316 33.0194600773774)",15TH @ BRENTWOOD - W - NS,23962,-96.7180681123316,33.0194600773774
"POINT (-96.8339829730399 32.662013151754)",RACINE @ CAMP WISDOM - N - NS,23987,-96.8339829730399,32.662013151754
"POINT (-96.7960108669028 32.7780661126803)",YOUNG @ ERVAY - W - NS,23995,-96.7960108669028,32.7780661126803
"POINT (-96.8913418799735 32.7196632125653)",COCKRELL HILL @ PEPPERTREE - N - NS,24036,-96.8913418799735,32.7196632125653
"POINT (-96.8367746089978 32.8645151979337)",MIDWAY @ NORTHWEST - S - MB,24046,-96.8367746089978,32.8645151979337
"POINT (-96.8068369715387 32.6856931210531)",HORTENSE @ PENTAGON - S - NS,24074,-96.8068369715387,32.6856931210531
"POINT (-96.9353226895196 32.8119563120431)",IRVING @ 3RD - E - NS,24084,-96.9353226895196,32.8119563120431
"POINT (-96.9432739824119 32.628943273523)",CLARK @ CLOVERGLEN - S - NS,24121,-96.9432739824119,32.628943273523
"POINT (-96.8827406832938 32.8281012497462)",GOVERNORS @ TITAN - E - NS,24143,-96.8827406832938,32.8281012497462
"POINT (-96.7563229968694 32.7168820632112)",SH 310 @ LINFIELD - S - MB,24208,-96.7563229968694,32.7168820632112
"POINT (-96.6567738710948 32.7622390536319)",ST AUGUSTINE @ SCYENE - N - NS,24247,-96.6567738710948,32.7622390536319
"POINT (-96.84988871269 32.8218391990279)",PLANTATION @ HARRY HINES - N - NS,24282,-96.84988871269,32.8218391990279
"POINT (-96.7350254616734 32.9092700602492)",FOREST @ ABRAMS - W - NS,24291,-96.7350254616734,32.9092700602492
"POINT (-96.8521258890604 32.7467961678743)",JEFFERSON @ MARLBOROUGH - W - FS,24366,-96.8521258890604,32.7467961678743
"POINT (-96.6506505952953 32.8538560571825)",WOODMEADOW @ FERGUSON - W - NS,24369,-96.6506505952953,32.8538560571825
"POINT (-96.6549829076918 32.7342710534646)",LAKE JUNE @ ST AUGUSTINE - W - MB,24407,-96.6549829076918,32.7342710534646
"POINT (-96.6840603768616 32.9310350606476)",BUCKINGHAM @ JUPITER - E - NS,25202,-96.6840603768616,32.9310350606476
"POINT (-96.6807143742997 32.9313100604197)",BUCKINGHAM @ JUPITER - W - NS,25203,-96.6807143742997,32.9313100604197
"POINT (-96.6618324114082 32.9174860595812)",CLARA BARTON @ MARIE CURIE - N - MB,25221,-96.6618324114082,32.9174860595812
"POINT (-96.6620224105926 32.9177070600307)",CLARA BARTON @ WALNUT - S - MB,25222,-96.6620224105926,32.9177070600307
"POINT (-96.789287867838 32.7795181047053)",TP ONLY CENTRAL & CADIZ,25315,-96.789287867838,32.7795181047053
"POINT (-96.8341579727612 32.6617871517355)",RACINE @ BLUEWOOD - S - NS,25540,-96.8341579727612,32.6617871517355
"POINT (-96.7558099974563 32.7167960628932)",SH 310 @ LINFIELD - N - FS,25652,-96.7558099974563,32.7167960628932
"POINT (-96.7943460748926 33.0530681967138)",PRESTON @ NUECES - N - FS,25720,-96.7943460748926,33.0530681967138
"POINT (-96.7781566836111 32.8418771000356)",SMU @ BOEDEKER - E - MB,25727,-96.7781566836111,32.8418771000356
"POINT (-96.824834892482 32.7590501409073)",COLORADO @ BALLARD - E - FS,25732,-96.824834892482,32.7590501409073
"POINT (-96.7476720006582 32.7150810561511)",FELLOWS @ HULL - W - NS,25761,-96.7476720006582,32.7150810561511
"POINT (-96.9590115525743 32.8954274223498)",MACARTHUR @ ROYAL - S - FS,25763,-96.9590115525743,32.8954274223498
"POINT (-96.9591955538109 32.8945404220909)",MACARTHUR @ ROYAL - N - MB,25766,-96.9591955538109,32.8945404220909
"POINT (-96.9170734646293 32.9385503824471)",VALWOOD @ HUTTON - E - MB,25836,-96.9170734646293,32.9385503824471
"POINT (-96.8447813014754 32.9872572647665)",TRINITY MILLS @ VAIL - W - MB,25867,-96.8447813014754,32.9872572647665
"POINT (-96.8057983340661 32.9619731747241)",ARAPAHO @ PRESTON - E - MB2,25876,-96.8057983340661,32.9619731747241
"POINT (-96.8282743148599 32.9758352258801)",WESTGROVE @ ADDISON - W - MB,25924,-96.8282743148599,32.9758352258801
"POINT (-96.691210807026 32.7934200552817)",ST FRANCIS @ SAMUELL - N - FS,25965,-96.691210807026,32.7934200552817
"POINT (-96.6916159425015 32.7493630532914)",HILLBURN @ BRUTON - N - FS,25974,-96.6916159425015,32.7493630532914
"POINT (-96.701259954279 32.7197960550886)",ELAM @ BISSONET - W - MB,25977,-96.701259954279,32.7197960550886
"POINT (-96.6832039378596 32.7079230559124)",KOMALTY @ MURDOCK - E - NS,25994,-96.6832039378596,32.7079230559124
"POINT (-96.6580139128573 32.7087520549933)",SEAGOVILLE @ ST AUGUSTINE - E - MB,26005,-96.6580139128573,32.7087520549933
"POINT (-96.8805747913642 32.7789592168669)",SINGLETON @ ESMALDA - W - NS,26022,-96.8805747913642,32.7789592168669
"POINT (-96.8499327114376 32.8224011994085)",HARRY HINES @ TREADWAY - N - FS,26086,-96.8499327114376,32.8224011994085
"POINT (-96.7959470622759 33.0584732031494)",PRESTON @ WHITESTONE - S - NS,26120,-96.7959470622759,33.0584732031494
"POINT (-96.7957750613032 33.0588512034868)",PRESTON @ WHITESTONE - N - FS,26121,-96.7957750613032,33.0588512034868
"POINT (-96.7972239769638 32.6857701100369)",RAMONA @ FIVE MILE - N - FS,26123,-96.7972239769638,32.6857701100369
"POINT (-96.8222934042623 32.9405612011164)",DALLAS N TOLLWAY @ INTERNATIONAL - S - FS,26195,-96.8222934042623,32.9405612011164
"POINT (-96.679219712793 32.8209790558925)",FERGUSON @ OATES - S - FS,26237,-96.679219712793,32.8209790558925
"POINT (-96.8407892974459 32.9872132563993)",TRINITY MILLS @WAYPOINT - E - NS,26284,-96.8407892974459,32.9872132563993
"POINT (-96.8721835064628 32.9084152790109)",WEBB CHAPEL @ FOREST - N - MB,26377,-96.8721835064628,32.9084152790109
"POINT (-96.9523135038253 32.926649439504)",MACARTHUR @ RANCH - S - FS,26380,-96.9523135038253,32.926649439504
"POINT (-96.9074073418694 32.998943406767)",FRANKFORD @ FAIRGATE - W - FS,26382,-96.9074073418694,32.998943406767
"POINT (-96.9592566369817 32.8383803697801)",MACARTHUR @ SH 183 - S - MB,26410,-96.9592566369817,32.8383803697801
"POINT (-96.9590736373558 32.8383733693284)",MACARTHUR @ SH 183 - N - FS,26411,-96.9590736373558,32.8383733693284
"POINT (-96.804225607454 32.8658571458942)",PRESTON @ NORTHWEST - S - NS,26468,-96.804225607454,32.8658571458942
"POINT (-96.8039566103968 32.865140145631)",PRESTON @ NORTHWEST - N - NS,26469,-96.8039566103968,32.865140145631
"POINT (-96.8158010310042 33.0780602551436)",LEGACY @ PARKWOOD - W - MB3,26477,-96.8158010310042,33.0780602551436
"POINT (-96.7774366840545 32.8421190990417)",SMU @ BOEDEKER - W - FS,26523,-96.7774366840545,32.8421190990417
"POINT (-96.742619607796 32.8659680587766)",SKILLMAN @ WALLING - S - FS,26550,-96.742619607796,32.8659680587766
"POINT (-96.9007559050081 32.6937922242015)",COUNTRY CREEK @ COUNTRY CREEK CT -  N - MB,26577,-96.9007559050081,32.6937922242015
"POINT (-96.8731898155893 32.7710702031967)",COMMERCE @ WESTMORELAND - E - FS,26584,-96.8731898155893,32.7710702031967
"POINT (-96.9168948178453 32.74771323979)",JEFFERSON @ WALTON WALKER - W - NS,26588,-96.9168948178453,32.74771323979
"POINT (-96.895050696541 32.8192512611432)",DIPLOMACY @ REGAL - W - NS,26600,-96.895050696541,32.8192512611432
"POINT (-96.7985968691371 32.7762581151169)",MARILLA @ AKARD - E - NS,26608,-96.7985968691371,32.7762581151169
"POINT (-96.7433879973824 32.7085630562411)",CHERBOURG @ DUTCH HARBOR - E - NS,26693,-96.7433879973824,32.7085630562411
"POINT (-96.8200270511349 33.0717252597503)",TENNYSON @ PARKWOOD - E - MB,26731,-96.8200270511349,33.0717252597503
"POINT (-96.6040583355322 32.9381330602842)",FIREWHEEL @ PLEASANT VALLEY - S - NS,26772,-96.6040583355322,32.9381330602842
"POINT (-96.6829098746786 32.7692120540776)",MILITARY @ BUCKNER - E - NS,26797,-96.6829098746786,32.7692120540776
"POINT (-96.6569899099056 32.7343800535272)",ST AUGUSTINE @ LAKE JUNE - S - NS,26814,-96.6569899099056,32.7343800535272
"POINT (-96.6570999116237 32.7104450553909)",ST AUGUSTINE @ OLD SEAGOVILLE - S -,26819,-96.6570999116237,32.7104450553909
"POINT (-96.6488319042765 32.7008530558657)",MASTERS @ US 175 - S - NS,26825,-96.6488319042765,32.7008530558657
"POINT (-96.6825338726726 32.7697030543353)",MILITARY @ BUCKNER - W - NS,26847,-96.6825338726726,32.7697030543353
"POINT (-96.6656328762358 32.7632450539155)",SCYENE @ PRAIRIE CREEK - E - NS,26848,-96.6656328762358,32.7632450539155
"POINT (-96.6743369269553 32.7337930542772)",HOLCOMB @ LAKE JUNE - S - FS,26861,-96.6743369269553,32.7337930542772
"POINT (-96.6577949104291 32.7339690536144)",LAKE JUNE @ ST AUGUSTINE - E - MB,26908,-96.6577949104291,32.7339690536144
"POINT (-96.6532718681105 32.7624160534122)",SCYENE @ ST AUGUSTINE - W - MB,26940,-96.6532718681105,32.7624160534122
"POINT (-96.7843379751799 32.711900094401)",SUNNYVALE @ OVERTON - S - NS,27086,-96.7843379751799,32.711900094401
"POINT (-96.7813419392588 32.7583830911)",LAMAR @ FOREST - N - FS,27110,-96.7813419392588,32.7583830911
"POINT (-96.8917259186916 32.6871322147707)",BRONZE @ COCKRELL HILL - E - NS,27160,-96.8917259186916,32.6871322147707
"POINT (-96.7718289896868 32.6938110811727)",BONNIE VIEW @ LEDBETTER - S - FS,27231,-96.7718289896868,32.6938110811727
"POINT (-96.8398024343029 32.9330652313124)",ALPHA @ MIDWAY - W - FS,27303,-96.8398024343029,32.9330652313124
"POINT (-97.0361485581789 32.8972425533275)",TERMINAL C @ ENTRY LL C21 - N - NS,27307,-97.0361485581789,32.8972425533275
"POINT (-97.0359485656287 32.8903955463371)",TERMINAL E @ NO ENTRY - N - NS,27313,-97.0359485656287,32.8903955463371
"POINT (-97.044965548311 32.9053815748236)",TERMINAL B @ ENTRY LL B23 - S - NS,27316,-97.044965548311,32.9053815748236
"POINT (-96.6504415957279 32.8536730569109)",WOODMEADOW @ FERGUSON - E - FS,27468,-96.6504415957279,32.8536730569109
"POINT (-96.6372496161552 32.8441000568196)",WOODMEADOW @ LA PRADA - E - MB8,27476,-96.6372496161552,32.8441000568196
"POINT (-96.9651335210714 32.9184934553155)",MARKET PLACE @ WALTON - E - FS,27579,-96.9651335210714,32.9184934553155
"POINT (-96.5446735066088 32.8648810562138)",IH 30 @ BASS PRO - S - FS,27781,-96.5446735066088,32.8648810562138
"POINT (-96.5676625538621 32.8516970561353)",IH 30 @ BOBTOWN - W - MB,27787,-96.5676625538621,32.8516970561353
"POINT (-96.7880348082628 32.7995161065576)",WASHINGTON @ MUNGER - W - FS,27822,-96.7880348082628,32.7995161065576
"POINT (-96.8631647169109 32.817331215721)",RIVER BEND @ BROOKRIVER - E - NS,27831,-96.8631647169109,32.817331215721
"POINT (-96.7186094108579 32.9231350603114)",WALNUT @ AUDELIA - E - NS,28059,-96.7186094108579,32.9231350603114
"POINT (-96.6828174168004 32.9178700596023)",JUPITER @ WALNUT - N - FS,28065,-96.6828174168004,32.9178700596023
"POINT (-96.6831934159387 32.9181830594837)",JUPITER @ WALNUT - S - NS,28066,-96.6831934159387,32.9181830594837
"POINT (-96.8044588520129 32.7807011238224)",ROSA PARKS PLAZA,28076,-96.8044588520129,32.7807011238224
"POINT (-96.7584210038001 32.6635260681437)",TIOGA @ SEBRING - W - NS,28079,-96.7584210038001,32.6635260681437
"POINT (-96.8038593548085 32.9540801689807)",BELT LINE @ PRESTON - W - NS,28103,-96.8038593548085,32.9540801689807
"POINT (-96.8063077601605 32.8124041347262)",LEMMON @ OAK LAWN - S - MB,28146,-96.8063077601605,32.8124041347262
"POINT (-96.7847116792116 32.8427731100474)",BISHOP @ SMU TURNAROUND - N - NS,28156,-96.7847116792116,32.8427731100474
"POINT (-96.9769566998719 32.7862073434728)",STORY @ SPANISH - N - MB,28161,-96.9769566998719,32.7862073434728
"POINT (-96.8510639782356 32.6477061709631)",WHEATLAND @ FELLOWSHIP - W - NS,28203,-96.8510639782356,32.6477061709631
"POINT (-96.8368441790071 33.0303212700636)",PLANO @ CHAPEL HILL - E - FS,28282,-96.8368441790071,33.0303212700636
"POINT (-96.9020827971524 32.7670732358201)",IH 30 @ CHALK HILL - W - NS,28357,-96.9020827971524,32.7670732358201
"POINT (-96.9020747997209 32.7657662345561)",IH 30 @ CHALK HILL - E - FS,28368,-96.9020747997209,32.7657662345561
"POINT (-96.8296533162546 32.9757152281137)",WESTGROVE @ ADDISON - E - FS,28416,-96.8296533162546,32.9757152281137
"POINT (-96.8905916091144 32.8620092822061)",SHADY TRAIL @ WILLOWBROOK - S - NS,28490,-96.8905916091144,32.8620092822061
"POINT (-96.8730677989161 32.7786242072097)",SINGLETON @ WESTMORELAND - E - FS,28492,-96.8730677989161,32.7786242072097
"POINT (-96.8733585007552 32.9111212826742)",WEBB CHAPEL @ FOREST - S - MB,28536,-96.8733585007552,32.9111212826742
"POINT (-96.6482824759845 32.8939340582788)",SATURN @ MILLER - S - FS,28538,-96.6482824759845,32.8939340582788
"POINT (-96.8155528356872 32.7832581377102)",RIVERFRONT @ CONTINENTAL - S - FS,28550,-96.8155528356872,32.7832581377102
"POINT (-96.6832706246964 32.8502210575973)",JUPITER @ GARLAND - S - MB,28587,-96.6832706246964,32.8502210575973
"POINT (-96.7889228683793 32.7794201036992)",CESAR CHAVEZ @ CANTON - N - MB,28593,-96.7889228683793,32.7794201036992
"POINT (-96.7897388663948 32.7799211047365)",CESAR CHAVEZ @ CANTON - S - FS,28594,-96.7897388663948,32.7799211047365
"POINT (-96.7664252513006 32.9781140968364)",CAMPBELL @ COIT - E - FS,28605,-96.7664252513006,32.9781140968364
"POINT (-96.8355577545713 32.8083111731996)",AMELIA COURT,28632,-96.8355577545713,32.8083111731996
"POINT (-96.9397178584702 32.7063842671767)",POTTER'S HOUSE @ ENTRANCE - W - FS,28715,-96.9397178584702,32.7063842671767
"POINT (-96.7004064480389 32.9097910595994)",PLANO @ FOREST - N - FS,28758,-96.7004064480389,32.9097910595994
"POINT (-96.7205613731873 32.9350550611585)",BUCKINGHAM @ AUDELIA - W - FS,28772,-96.7205613731873,32.9350550611585
"POINT (-96.720204373435 32.9348650609501)",BUCKINGHAM @ AUDELIA - E - NS,28786,-96.720204373435,32.9348650609501
"POINT (-96.7005954474293 32.9096900601005)",PLANO @ FOREST - S - NS,28801,-96.7005954474293,32.9096900601005
"POINT (-96.8378787483397 32.8102271768539)",PARKLAND HOSPITAL,28890,-96.8378787483397,32.8102271768539
"POINT (-96.8437517228811 32.818990188666)",UT SOUTHWEST NORTH CAMPUS,28891,-96.8437517228811,32.818990188666
"POINT (-96.6315686001812 32.8482340562539)",NORTHWEST @ LA PRADA - S - MB,28924,-96.6315686001812,32.8482340562539
"POINT (-96.7514454638191 32.9101330623658)",TPSLOB,28937,-96.7514454638191,32.9101330623658
"POINT (-96.7692774348285 32.9210140958592)",COIT @ BANNER - S - FS,28967,-96.7692774348285,32.9210140958592
"POINT (-96.8133674027644 32.9393741835515)",SPRING VALLEY @ MONTFORT - E - FS,28981,-96.8133674027644,32.9393741835515
"POINT (-96.7787162328698 32.9875791240667)",MEANDERING @ MCCALLUM - S - FS,29038,-96.7787162328698,32.9875791240667
"POINT (-96.8588157029729 32.8242582130549)",OAKBROOK @ PRUDENTIAL - S - NS,29085,-96.8588157029729,32.8242582130549
"POINT (-96.701550208919 32.9854030625349)",LOOKOUT @ PLANO - E - MB,29120,-96.701550208919,32.9854030625349
"POINT (-96.8036574185276 32.9319051629708)",PRESTON @ ALPHA - S - FS,29153,-96.8036574185276,32.9319051629708
"POINT (-96.7139392096653 32.9854760622449)",PALISADES BLDG,29214,-96.7139392096653,32.9854760622449
"POINT (-96.6817259322917 32.7489130531775)",BRUTON @ BUCKNER - W - MB,29257,-96.6817259322917,32.7489130531775
"POINT (-96.865925970939 32.6511211879548)",BAINBRIDGE @ IH 20 - S - MB,29261,-96.865925970939,32.6511211879548
"POINT (-96.8187534584489 32.9201831875909)",INWOOD @ JESUIT - S - MB,29262,-96.8187534584489,32.9201831875909
"POINT (-96.8568857918754 32.7871331922108)",BICKERS @ HAMPTON - E - NS,29276,-96.8568857918754,32.7871331922108
"POINT (-96.8547253516536 32.970651278034)",KELLER SPRINGS @ MARSH - E - FS,29363,-96.8547253516536,32.970651278034
"POINT (-96.6361634695941 32.894459058356)",MILLER @ 5TH - W - NS,29452,-96.6361634695941,32.894459058356
"POINT (-96.6363804684084 32.8949830584566)",5TH @ MILLER - S - MB,29456,-96.6363804684084,32.8949830584566
"POINT (-96.6483583641911 32.9318670604378)",GARLAND @ BUCKINGHAM - S - NS,29505,-96.6483583641911,32.9318670604378
"POINT (-96.6481603646933 32.9318360603061)",GARLAND @ BUCKINGHAM - N - FS,29506,-96.6481603646933,32.9318360603061
"POINT (-96.614255404654 32.9145140586899)",WALNUT @ COUNTRY CLUB - W - FS,29536,-96.614255404654,32.9145140586899
"POINT (-96.670003136472 33.0096220685916)",SUMMIT @ KLEIN - E - NS,29641,-96.670003136472,33.0096220685916
"POINT (-96.7443218595666 32.7905170563398)",BEEMAN @ CULVER - N - FS,29681,-96.7443218595666,32.7905170563398
"POINT (-96.8431979329785 32.7062541596416)",NAVAJO @ KIEST - N - FS,29683,-96.8431979329785,32.7062541596416
"POINT (-96.8432669324328 32.7060141598379)",NAVAJO @ KIEST - S - NS,29684,-96.8432669324328,32.7060141598379
"POINT (-96.9396785650355 32.8860703814357)",CUSTOMER @ LAS COLINAS - W - MB,29703,-96.9396785650355,32.8860703814357
"POINT (-96.9085148626395 32.7208842318154)",DUNCANVILLE @ ILLINOIS - N - FS,29758,-96.9085148626395,32.7208842318154
"POINT (-96.6496353690451 32.9305820601868)",BUCKINGHAM @ GARLAND - E - MB,29775,-96.6496353690451,32.9305820601868
"POINT (-96.7138608258567 32.7931260554403)",SAMUELL @ TREW - W - NS,29836,-96.7138608258567,32.7931260554403
"POINT (-96.7378407943946 32.8085560567884)",LINDSLEY @ TENISON MEMORIAL - S - MB,29837,-96.7378407943946,32.8085560567884
"POINT (-96.737507794185 32.8085720563596)",LINDSLEY @ SHADYSIDE - N - MB,29838,-96.737507794185,32.8085720563596
"POINT (-96.8229909508093 32.7013051378274)",BECKLEY @ OVERTON - S - MB,29874,-96.8229909508093,32.7013051378274
"POINT (-96.9208638301991 32.7362712449281)",KEENELAND @ WALTON WALKER - E - NS,29905,-96.9208638301991,32.7362712449281
"POINT (-96.7944198665685 32.7783251102079)",YOUNG @ ST PAUL - E - FS,29974,-96.7944198665685,32.7783251102079
"POINT (-96.9906505387007 32.9118704950766)",ROYAL @ BENT BRANCH - W - MB,29976,-96.9906505387007,32.9118704950766
"POINT (-96.8048148610681 32.7771391227503)",WOOD @ MARKET - W - MB,30052,-96.8048148610681,32.7771391227503
"POINT (-96.9654755209769 32.9186884568461)",MARKET PLACE @ WALTON - W - NS,30094,-96.9654755209769,32.9186884568461
"POINT (-96.8653232999088 32.9969193142206)",FRANKFORD @ KELLY - E - FS,30117,-96.8653232999088,32.9969193142206
"POINT (-96.8473172459993 33.0097402809074)",LINA @ ROSEMEADE - N - NS,30118,-96.8473172459993,33.0097402809074
"POINT (-96.7470794685984 32.9083570601585)",GREENVILLE @ FOREST - N - MB,30167,-96.7470794685984,32.9083570601585
"POINT (-96.6552553087485 32.9513830609378)",APOLLO @ GARLAND - E - MB,30205,-96.6552553087485,32.9513830609378
"POINT (-96.6549573078686 32.9514290610381)",APOLLO @ BUTTERMILK - W - MB,30207,-96.6549573078686,32.9514290610381
"POINT (-96.7093591895263 32.9916480626101)",AT&T BUILDING,30267,-96.7093591895263,32.9916480626101
"POINT (-96.8661709746299 32.6476451879309)",WHEATLAND @ OLD HICKORY - W - FS,30278,-96.8661709746299,32.6476451879309
"POINT (-96.7732674686796 32.9108871024974)",MEDICAL CITY - BUILDING A,30291,-96.7732674686796,32.9108871024974
"POINT (-96.8456527085946 32.8240481935332)",FOREST PARK @ TREADWAY - N - MB,30323,-96.8456527085946,32.8240481935332
"POINT (-96.7543749728833 32.7566580594275)",MALCOLM X BLVD TRANSFER LOCATION,30337,-96.7543749728833,32.7566580594275
"POINT (-96.7782032312652 32.9879131234645)",MCCALLUM @ MEANDERING - E - FS,30398,-96.7782032312652,32.9879131234645
"POINT (-96.8774915689944 32.8808612730045)",WALNUT HILL @ BROCKBANK - E - MB,30400,-96.8774915689944,32.8808612730045
"POINT (-96.8775305690776 32.8810742730122)",WALNUT HILL @ MONROE - W - MB,30423,-96.8775305690776,32.8810742730122
"POINT (-96.8026179826096 32.6675621167854)",HIDDEN VALLEY @ QUARTET - W - NS,30448,-96.8026179826096,32.6675621167854
"POINT (-96.7113312313915 32.9787530626577)",LAWNVIEW @ LAKESIDE - N - NS,30468,-96.7113312313915,32.9787530626577
"POINT (-96.6871608391133 32.7819040549776)",WIMBELTON @ CHARIOT - N - NS,30473,-96.6871608391133,32.7819040549776
"POINT (-96.7460389237973 32.7715920557575)",SPRING @ LAGOW - W - NS,30477,-96.7460389237973,32.7715920557575
"POINT (-96.8400929687664 32.6636481582235)",POLK @ CAMP WISDOM - S - MB,30490,-96.8400929687664,32.6636481582235
"POINT (-96.8253690464708 32.5590581466306)",GLENN HEIGHTS P & R,30496,-96.8253690464708,32.5590581466306
"POINT (-96.7693831417797 33.0169731182725)",JACK HATCHELL TC,30504,-96.7693831417797,33.0169731182725
"POINT (-96.7651638637537 32.787172074897)",TP ONLY IH 30 @ PEAK,30524,-96.7651638637537,32.787172074897
"POINT (-96.7707799057685 32.7724390809227)",AL LIPSCOMB WAY @ MERLIN - S - MB,30530,-96.7707799057685,32.7724390809227
"POINT (-96.9088098796148 32.7081442323847)",DUNCANVILLE @ KIEST - S - MB,30539,-96.9088098796148,32.7081442323847
"POINT (-96.8697789722025 32.6484921916949)",KIRNWOOD @ WHEATLAND - S - MB,30568,-96.8697789722025,32.6484921916949
"POINT (-96.8150834854684 32.9096311772127)",FOREST @ DALLAS N TOLLWAY - W - FS,30582,-96.8150834854684,32.9096311772127
"POINT (-96.8562689771902 32.647474177436)",WHEATLAND @ HAMPTON - E - FS,30597,-96.8562689771902,32.647474177436
"POINT (-96.8575179769291 32.6477181780129)",WHEATLAND @ HAMPTON - W - FS,30598,-96.8575179769291,32.6477181780129
"POINT (-96.8702307148595 32.8165592245889)",SH 183 @ IH 35 - E - MB,30610,-96.8702307148595,32.8165592245889
"POINT (-96.6950810100567 33.0562911000246)",US 75 @ SPRING CREEK - S - FS,30653,-96.6950810100567,33.0562911000246
"POINT (-96.6814830266414 33.0493430928281)",JUPITER @ CCCC SOUTH ENT - N - FS,30671,-96.6814830266414,33.0493430928281
"POINT (-97.0354325969654 32.8619905182663)",AIRFIELD @ SOUTH REMOTE PKG - E- NS,30676,-97.0354325969654,32.8619905182663
"POINT (-96.7663048609129 32.7877630763811)",TP ONLY IH 30 @ PEAK,30705,-96.7663048609129,32.7877630763811
"POINT (-96.6135253064908 32.9494820603562)",HORSESHOE @ CRIST - E - NS,30706,-96.6135253064908,32.9494820603562
"POINT (-97.0429405561311 32.898100564709)",TERMINAL D @ LL GATE 23-40 - S - NS,30722,-97.0429405561311,32.898100564709
"POINT (-96.9844055554577 32.8974714690105)",PREMIER @ SHORTHORN - W - FS,30756,-96.9844055554577,32.8974714690105
"POINT (-96.6808157570683 32.8069020552986)",JOHN WEST @ CADENZA - E - MB,30797,-96.6808157570683,32.8069020552986
"POINT (-96.6813737559903 32.8071980560481)",JOHN WEST @ BUCKNER - W - MB,30806,-96.6813737559903,32.8071980560481
"POINT (-96.7543997895486 32.8121310627415)",PAULUS @ GASTON - N - NS,30822,-96.7543997895486,32.8121310627415
"POINT (-96.8302286611693 32.8450671801548)",ROPER @ UNIVERSITY - S - NS,30825,-96.8302286611693,32.8450671801548
"POINT (-96.8300836615822 32.8446861795143)",ROPER @ UNIVERSITY - N - NS,30836,-96.8300836615822,32.8446861795143
"POINT (-96.7445580010003 32.6687830588726)",J J LEMMON @ TIOGA - S - NS,30859,-96.7445580010003,32.6687830588726
"POINT (-96.7570090044903 32.6644490664864)",TIOGA @ BONNIE VIEW - W - NS,30862,-96.7570090044903,32.6644490664864
"POINT (-97.008481615294 32.8465484548672)",ESTERS @ ROCHELLE - N - NS,30882,-97.008481615294,32.8465484548672
"POINT (-97.0087486148257 32.8461474550694)",ESTERS @ ROCHELLE - S - FS,30891,-97.0087486148257,32.8461474550694
"POINT (-96.9520385036001 32.9267634390169)",MACARTHUR @ RANCH TRAIL - N - NS,30919,-96.9520385036001,32.9267634390169
"POINT (-96.7018636895098 32.8332420573125)",BUCKNER @ GARLAND - S - FS,30963,-96.7018636895098,32.8332420573125
"POINT (-96.7016426893944 32.8333030571358)",BUCKNER @ GARLAND - N - NS,30984,-96.7016426893944,32.8333030571358
"POINT (-96.5720795467962 32.8552980558921)",WATERHOUSE @ ROAN - E - NS,30986,-96.5720795467962,32.8552980558921
"POINT (-96.5715785536571 32.8524200560326)",ROAN @ EASTON MEADOWS - S - NS,30987,-96.5715785536571,32.8524200560326
"POINT (-96.56896656235 32.8484890554727)",BOBTOWN @ LYONS - E - FS,30988,-96.56896656235,32.8484890554727
"POINT (-96.571309553198 32.8525400556456)",ROAN @ EASTON MEADOWS - N - FS,31000,-96.571309553198,32.8525400556456
"POINT (-96.5720645461089 32.8553560558186)",WATERHOUSE @ ROAN - W - FS,31001,-96.5720645461089,32.8553560558186
"POINT (-96.8905088791822 32.7202942120949)",ILLINOIS @ COCKRELL HILL - E - FS,31004,-96.8905088791822,32.7202942120949
"POINT (-96.8036614145668 32.9333591625949)",PRESTON @ ALPHA - N - FS,31035,-96.8036614145668,32.9333591625949
"POINT (-96.6837584882145 32.894594058578)",MILLER @ JUPITER - W - FS,31039,-96.6837584882145,32.894594058578
"POINT (-96.6387852800622 32.96007806149)",NAAMAN FOREST @ ELLIOTT - W - FS,31053,-96.6387852800622,32.96007806149
"POINT (-96.853350348388 32.9712772756506)",KELLER SPRINGS @ MARSH - W - MB,31073,-96.853350348388,32.9712772756506
"POINT (-96.8171454232323 32.9327581886809)",ALPHA @ NOEL - E - FS,31075,-96.8171454232323,32.9327581886809
"POINT (-96.8247882472706 32.9996922271258)",PEAR RIDGE @ OLD BENT TREE - N - NS,31160,-96.8247882472706,32.9996922271258
"POINT (-96.804036986784 32.6581821183733)",UNIVERSITY OF NORTH TEXAS - DALLAS,31188,-96.804036986784,32.6581821183733
"POINT (-96.7669208818854 32.7810430766652)",PARRY @ 1ST - S - FS,31190,-96.7669208818854,32.7810430766652
"POINT (-96.8179164208661 32.9336141902808)",NOEL @ ALPHA - N - FS,31192,-96.8179164208661,32.9336141902808
"POINT (-96.8856705678075 32.8818372869098)",HARRY HINES @ WALNUT HILL - N - FS,31258,-96.8856705678075,32.8818372869098
"POINT (-96.8908715417316 32.8946083041838)",HARRY HINES @ ROYAL - N - MB,31262,-96.8908715417316,32.8946083041838
"POINT (-96.891202541158 32.8947353049151)",HARRY HINES @ ROYAL - S - FS,31275,-96.891202541158,32.8947353049151
"POINT (-96.8248872471842 32.999753226923)",PEAR RIDGE @ OLD BENT TREE - S - FS,31320,-96.8248872471842,32.999753226923
"POINT (-96.6912878107412 32.792186055202)",ST FRANCIS @ SAMUELL - S - FS,31415,-96.6912878107412,32.792186055202
"POINT (-96.7677646650263 32.848832084998)",MILTON @ MATILDA - W - FS,31459,-96.7677646650263,32.848832084998
"POINT (-96.9436996494088 32.8337713423462)",NORTH IRVING HC @ LANE - N - FS,31461,-96.9436996494088,32.8337713423462
"POINT (-96.7589005524874 32.8837740739761)",GREENVILLE @ WALNUT HILL - N - FS,31497,-96.7589005524874,32.8837740739761
"POINT (-96.8888183747599 32.973387349938)",KELLER SPRINGS @ JOSEY - W - MB,31503,-96.8888183747599,32.973387349938
"POINT (-96.8886413756713 32.9731343496202)",KELLER SPRINGS @ JOSEY - E - FS,31518,-96.8886413756713,32.9731343496202
"POINT (-96.7629709997945 32.6725450724384)",SIMPSON STUART @ BONNIE VIEW - E - NS,31548,-96.7629709997945,32.6725450724384
"POINT (-96.815374487215 32.9093741779112)",FOREST @ DALLAS N TOLLWAY - E - NS,31622,-96.815374487215,32.9093741779112
"POINT (-96.6660457450391 32.8070680555125)",JOHN WEST @ LA PRADA EAST - W - FS,31648,-96.6660457450391,32.8070680555125
"POINT (-96.8316982101141 33.0164452510865)",HORIZON NORTH @ PLANO - N - NS,31673,-96.8316982101141,33.0164452510865
"POINT (-97.0113685166801 32.9342515529408)",REGENT @ STATESMAN - N - MB1,31678,-97.0113685166801,32.9342515529408
"POINT (-96.984329555632 32.897346468747)",PREMIER @ SHORTHORN - E - NS,31686,-96.984329555632,32.897346468747
"POINT (-96.6036433356398 32.9381980601867)",FIREWHEEL @ PLEASANT VALLEY - N - FS,31754,-96.6036433356398,32.9381980601867
"POINT (-96.6698551356376 33.0098000687484)",SUMMIT @ KLEIN - W - FS,31790,-96.6698551356376,33.0098000687484
"POINT (-96.7660100084558 32.6261220780639)",CEDAR VALLEY @ GYMNASIUM - E - NS,31804,-96.7660100084558,32.6261220780639
"POINT (-96.6706067486059 32.8071350553068)",JOHN WEST @ HOMEWAY - W - MB1,31825,-96.6706067486059,32.8071350553068
"POINT (-96.6650120757311 33.0308620799275)",PARK @ SHILOH - S - FS,31842,-96.6650120757311,33.0308620799275
"POINT (-96.7715670448957 33.0558841528135)",SPRING CREEK @ COIT - E - MB,31869,-96.7715670448957,33.0558841528135
"POINT (-96.7723310444564 33.0565951551442)",SPRING CREEK @ COIT - W - FS,31870,-96.7723310444564,33.0565951551442
"POINT (-96.8183930543291 33.0701032554063)",PARKWOOD @ TENNYSON - N - MB,31881,-96.8183930543291,33.0701032554063
"POINT (-96.8361331785289 33.030204268427)",PLANO @ CHAPEL HILL - N - MB1,31900,-96.8361331785289,33.030204268427
"POINT (-96.8321662123897 33.0159742519733)",HORIZON NORTH @ PLANO - S - FS,31920,-96.8321662123897,33.0159742519733
"POINT (-96.8420872253708 33.0149862730477)",HORIZON NORTH @ MIDWAY - W - MB3,31924,-96.8420872253708,33.0149862730477
"POINT (-96.977047681458 32.8006603579329)",STORY @ SHADY GROVE - S - NS,31947,-96.977047681458,32.8006603579329
"POINT (-96.9772146992814 32.7864883444233)",STORY @ SPANISH - S - FS,31952,-96.9772146992814,32.7864883444233
"POINT (-96.6544131387232 33.0087820672764)",LOS RIOS @ PLANO - N - FS,31977,-96.6544131387232,33.0087820672764
"POINT (-96.6827891139576 33.0180460742372)",14TH @ JUPITER - W - FS,32030,-96.6827891139576,33.0180460742372
"POINT (-96.8399524473233 32.9280802295728)",TP MCEWEN @ BLUE LAKE,32113,-96.8399524473233,32.9280802295728
"POINT (-96.7895636042975 32.8675361226557)",TURTLE CREEK @ BANDERA - N - NS,32118,-96.7895636042975,32.8675361226557
"POINT (-96.8267770650575 33.0690982711465)",NORTHWEST PLANO PARK & RIDE,32127,-96.8267770650575,33.0690982711465
"POINT (-96.8825509548387 32.6605772055888)",PREFERRED @ WESTMORELAND - E- NS,32134,-96.8825509548387,32.6605772055888
"POINT (-96.7994812755536 32.9802371665811)",CAMPBELL @ KELLER SPRINGS - W - FS,32152,-96.7994812755536,32.9802371665811
"POINT (-96.7995782765557 32.9800401669237)",CAMPBELL @ KELLER SPRINGS - E- NS,32155,-96.7995782765557,32.9800401669237
"POINT (-96.8590118682833 32.7542991780187)",BAHAMA @ ALPACA - E - FS,32165,-96.8590118682833,32.7542991780187
"POINT (-96.7868086543968 32.8509381153048)",HILLCREST @ LOVERS - N - NS,32170,-96.7868086543968,32.8509381153048
"POINT (-96.7869486532293 32.851323114993)",HILLCREST @ LOVERS - S- NS,32175,-96.7869486532293,32.851323114993
"POINT (-96.8565695686388 32.8804212373974)",WALNUT HILL @ MARSH - E- NS,32189,-96.8565695686388,32.8804212373974
"POINT (-96.8564885340921 32.8952542448572)",ROYAL @ MARSH - W- FS,32204,-96.8564885340921,32.8952542448572
"POINT (-96.8564345346095 32.8949582442521)",ROYAL @ MARSH - E- NS,32211,-96.8564345346095,32.8949582442521
"POINT (-96.6680096665886 32.833557056797)",SHILOH @ SAN VICENTE - N - NS,32223,-96.6680096665886,32.833557056797
"POINT (-96.8399024464657 32.9280832293608)",BLUE LAKE CIR @ MCEWEN - W - FS,32268,-96.8399024464657,32.9280832293608
"POINT (-96.8458837082058 32.8241511947593)",FOREST PARK @ TREADWAY - S- FS,32291,-96.8458837082058,32.8241511947593
"POINT (-96.871644709922 32.818458227672)",JOHN CARPENTER @ MOCKINGBIRD - N-FS,32296,-96.871644709922,32.818458227672
"POINT (-96.6831909338298 32.7486570532619)",BRUTON @ BUCKNER - E- NS,32343,-96.6831909338298,32.7486570532619
"POINT (-96.877135859705 32.7494951963258)",DAVIS @ FRANCES - E - NS,32349,-96.877135859705,32.7494951963258
"POINT (-96.8468107285027 32.8161741923089)",STHWSTRN MED @ RECORD CROSSING - N - MB,32366,-96.8468107285027,32.8161741923089
"POINT (-97.0089405424926 32.9119555257896)",PLAZA @ ESTERS - E - MB,32524,-97.0089405424926,32.9119555257896
"POINT (-97.013281514428 32.9369545591965)",REGENT @ STATESMAN -  S - MB,32534,-97.013281514428,32.9369545591965
"POINT (-97.0089125413845 32.9121015263631)",PLAZA @ ESTERS - W - FS,32538,-97.0089125413845,32.9121015263631
"POINT (-96.8586409747793 32.6497761800046)",CLIFF CREEK CROSSING @ HAMPTON - E- MB,32542,-96.8586409747793,32.6497761800046
"POINT (-96.7753579812174 32.7156130843924)",OVERTON @ ILLINOIS - N - MB,32546,-96.7753579812174,32.7156130843924
"POINT (-96.7717475989742 32.8693640939127)",NORTHPARK MALL @ EAST ENTRANCE - S,32548,-96.7717475989742,32.8693640939127
"POINT (-96.5889977992899 32.7655230527923)",DAVIS @ PADDY - E- MB,32583,-96.5889977992899,32.7655230527923
"POINT (-96.8025009900498 32.653571117646)",UNT STATION,32596,-96.8025009900498,32.653571117646
"POINT (-96.7882229898991 32.66707610114)",CAMP WISDOM STATION,32597,-96.7882229898991,32.66707610114
"POINT (-96.8328811313648 33.0462992706186)",COMMUNICATIONS @ PARKER - N - FS,32606,-96.8328811313648,33.0462992706186
"POINT (-96.8331841272097 33.048214271787)",COMMUNICATIONS @ BROOKHOLLOW - S - NS,32620,-96.8331841272097,33.048214271787
"POINT (-96.8285470460925 33.0765692792432)",COMMUNICATIONS @ LEGACY - S - FS,32623,-96.8285470460925,33.0765692792432
"POINT (-96.8282590468266 33.076298277892)",COMMUNICATIONS @ LEGACY - N - MB,32624,-96.8282590468266,33.076298277892
"POINT (-96.8207790353338 33.0778502646139)",LEGACY @ BISHOP - E - FS,32627,-96.8207790353338,33.0778502646139
"POINT (-96.8008650722722 33.0564722121708)",SPRING CREEK @ BAY WATER - E- NS,32635,-96.8008650722722,33.0564722121708
"POINT (-96.9510456306928 32.8442913633175)",ROCHELLE @ O'CONNOR - E - FS,32636,-96.9510456306928,32.8442913633175
"POINT (-96.9506376300522 32.8443743619811)",ROCHELLE @ OCONNOR - W- MB,32647,-96.9506376300522,32.8443743619811
"POINT (-96.9307336496412 32.8365693258124)",TPONLY STATE HWY 183 & CARL,32675,-96.9307336496412,32.8365693258124
"POINT (-96.5846924049829 32.9107420583886)",TP DEXHAM @ BROOKLINE,32676,-96.5846924049829,32.9107420583886
"POINT (-96.8487066592405 32.8435272074945)",LOVE FIELD AIRPORT (GROUND TRANSPORTATION),32736,-96.8487066592405,32.8435272074945
"POINT (-96.9912325392997 32.9123084968611)",BENT BRANCH @  ROYAL - N - FS,32740,-96.9912325392997,32.9123084968611
"POINT (-96.7850126919464 32.8386411103894)",TP BISHOP & MEADOWS,32777,-96.7850126919464,32.8386411103894
"POINT (-96.7792856829754 32.8420831018532)",BUSH LIBRARY,32778,-96.7792856829754,32.8420831018532
"POINT (-96.8398017490139 32.809402179205)",SOUTHWESTERN MEDICAL @ TRE CROSSWALK -  E -  NS,32808,-96.8398017490139,32.809402179205
"POINT (-96.8249719594921 32.6875861406033)",LEDBETTER @ VISTA WOOD - W - NS,32859,-96.8249719594921,32.6875861406033
"POINT (-96.825635960432 32.685873141842)",SHORT @ VISTAWOOD - W - NS,32880,-96.825635960432,32.685873141842
"POINT (-96.7962798435845 32.7857381146105)",FEDERAL @ OLIVE - E - NS,32888,-96.7962798435845,32.7857381146105
"POINT (-97.0113575239701 32.9279415468644)",FREEPORT @ ESTERS - S - FS,32911,-97.0113575239701,32.9279415468644
"POINT (-96.7727298536268 32.7883930846855)",ELM @ HILL,32944,-96.7727298536268,32.7883930846855
"POINT (-96.7747598466347 32.7903740880726)",HILL @ CRUTCHER - N - NS,32945,-96.7747598466347,32.7903740880726
"POINT (-96.7495842158328 32.9840370630466)",UNIVERSITY PARKWAY CIRCLE,32947,-96.7495842158328,32.9840370630466
"POINT (-96.7971608398809 32.7867591160226)",OLIVE @ SAN JACINTO - N - NS,32954,-96.7971608398809,32.7867591160226
"POINT (-96.848631715508 32.8208961963718)",WM P CLEMENTS UNIVERSITY HOSPITAL,32956,-96.848631715508,32.8208961963718
"POINT (-96.8368277440938 32.8118411763379)",NEW PARKLAND VALET,32970,-96.8368277440938,32.8118411763379
"POINT (-96.8389980449827 33.0807913011489)",HEADQUARTERS @ LEGACY - E - MB,32974,-96.8389980449827,33.0807913011489
"POINT (-96.7720301803071 33.0027501135047)",MAPLESHADE  @ COIT - W - FS,32976,-96.7720301803071,33.0027501135047
"POINT (-96.8356690358508 33.0831312964038)",HEADQUARTERS @ LEGACY - W -  MB1,33001,-96.8356690358508,33.0831312964038
"POINT (-96.5741525275854 32.8631170562543)",ROAN @ ROWLETT - N - NS,33013,-96.5741525275854,32.8631170562543
"POINT (-96.8069998114982 32.7940711306542)",MCKINNON @ HUNT - N - MB,33014,-96.8069998114982,32.7940711306542
"POINT (-96.5065323641742 32.9169500580735)",TP HERITAGE @ TOWNSHIP,33015,-96.5065323641742,32.9169500580735
"POINT (-96.5313983873141 32.9107410578931)",TP LAKEVIEW @ CHIESA,33016,-96.5313983873141,32.9107410578931
"POINT (-96.7723101951876 32.9975081120179)",FRANKFORD @ OSAGE PLAZA - E - FS,33037,-96.7723101951876,32.9975081120179
"POINT (-96.5738325294083 32.862166056337)",ROAN @ WHITEROCK - S - NS,33066,-96.5738325294083,32.862166056337
"POINT (-96.7973298594723 32.7801981143072)",COMMERCE @ ERVAY - E - MB,33089,-96.7973298594723,32.7801981143072
"POINT (-96.6647313300738 32.9447840602913)",BELT LINE @ SHILOH - W - NS,33090,-96.6647313300738,32.9447840602913
"POINT (-96.8445997255075 32.8175731896364)",HARRY HINES @ RECORD CROSSING - S - FS,33106,-96.8445997255075,32.8175731896364
"POINT (-96.7510681933896 32.9910000656402)",UTD NORTH,33120,-96.7510681933896,32.9910000656402
"POINT (-96.8260899894688 32.6431531439784)",IH 20 @ DPS ENTRANCE - W - FS,33122,-96.8260899894688,32.6431531439784
"POINT (-96.8025489832235 32.6675301163179)",HIDDEN VALLEY @ QUARTET - E - FS,33133,-96.8025489832235,32.6675301163179
"POINT (-96.9935345397463 32.9126715010792)",BELT LINE @ ROYAL - N - FS,33173,-96.9935345397463,32.9126715010792
"POINT (-96.9938835376656 32.9142395040643)",BELT LINE @ ROYAL - S - MB,33176,-96.9938835376656,32.9142395040643
"POINT (-96.7864208567453 32.7838301013711)",GOOD LATIMER @ ELM - N - NS,33179,-96.7864208567453,32.7838301013711
"POINT (-96.7865498583873 32.7834981014732)",GOOD LATIMER @ MAIN - S - NS,33180,-96.7865498583873,32.7834981014732
"POINT (-96.7502343890196 32.9323130611491)",TI MAIN CAMPUS NORTH BUILDING,33183,-96.7502343890196,32.9323130611491
"POINT (-96.6630995597016 32.8681880580213)",SOUTH GARLAND TC,33221,-96.6630995597016,32.8681880580213
"POINT (-96.8049829529617 32.7232761165104)",ILLINOIS TC/STATION,33222,-96.8049829529617,32.7232761165104
"POINT (-96.7984519470558 32.7482421083718)",8TH & CORINTH STATION,33223,-96.7984519470558,32.7482421083718
"POINT (-96.7210912841562 32.9625040621256)",ARAPAHO CENTER STATION,33224,-96.7210912841562,32.9625040621256
"POINT (-96.7948858438506 32.7860491130336)",PEARL @ BRYAN - N - NS,33225,-96.7948858438506,32.7860491130336
"POINT (-96.8722118966808 32.7197571918507)",WESTMORELAND STATION,33227,-96.8722118966808,32.7197571918507
"POINT (-96.8560139469687 32.6803951756508)",REDBIRD TC,33228,-96.8560139469687,32.6803951756508
"POINT (-96.9477946779006 32.8147983316461)",DOWNTOWN IRVING/HERITAGE CROSSING STATION,33229,-96.9477946779006,32.8147983316461
"POINT (-96.6358254026978 32.9174590596426)",DOWNTOWN GARLAND STATION,33230,-96.6358254026978,32.9174590596426
"POINT (-96.792872975967 32.6940871047731)",LANCASTER @ VA HOSPITAL - N - NS,33232,-96.792872975967,32.6940871047731
"POINT (-96.7693831417797 33.0169731182725)",JACK HATCHELL TC,33233,-96.7693831417797,33.0169731182725
"POINT (-96.6014815974195 32.843075055663)",LAKE RAY HUBBARD TRANSIT CENTER,33234,-96.6014815974195,32.843075055663
"POINT (-96.7715156634061 32.8491550912425)",LOVERS LANE STATION,33236,-96.7715156634061,32.8491550912425
"POINT (-96.8031788761369 32.772577120119)",CONVENTION CENTER STATION,33237,-96.8031788761369,32.772577120119
"POINT (-96.8550009053009 32.7264381727307)",HAMPTON STATION,33241,-96.8550009053009,32.7264381727307
"POINT (-96.7934438503737 32.7842591108057)",CBD EAST TC,33242,-96.7934438503737,32.7842591108057
"POINT (-96.7885719828795 32.683395100253)",LEDBETTER STATION,33243,-96.7885719828795,32.683395100253
"POINT (-96.7747016984127 32.8377000940873)",MOCKINGBIRD STATION,33244,-96.7747016984127,32.8377000940873
"POINT (-96.8281473592343 32.9588512189535)",ADDISON TRANSIT CENTER,33245,-96.8281473592343,32.9588512189535
"POINT (-96.8071318620674 32.7763591259492)",HOUSTON @ YOUNG - S - MB,33246,-96.8071318620674,32.7763591259492
"POINT (-96.7647755550275 32.8831040844173)",WALNUT HILL STATION,33247,-96.7647755550275,32.8831040844173
"POINT (-96.7520094370153 32.918285064539)",LBJ / CENTRAL STATION,33248,-96.7520094370153,32.918285064539
"POINT (-96.7108072106293 32.9850710626368)",GALATYN PARK STATION,33249,-96.7108072106293,32.9850710626368
"POINT (-96.562475411758 32.9052550582137)",ROWLETT STATION,33251,-96.562475411758,32.9052550582137
"POINT (-96.6792114445441 32.9083110594838)",FOREST / JUPITER STATION,33252,-96.6792114445441,32.9083110594838
"POINT (-96.8036168495002 32.781640122156)",CBD WEST TC,33253,-96.8036168495002,32.781640122156
"POINT (-96.766265877926 32.7823870762039)",PARRY @ EXPOSITION - S - NS,33254,-96.766265877926,32.7823870762039
"POINT (-96.7928377872475 32.8055181146579)",CITYPLACE/UPTOWN EAST,33255,-96.7928377872475,32.8055181146579
"POINT (-96.8923388576179 32.7369322134222)",COCKRELL HILL TL,33257,-96.8923388576179,32.7369322134222
"POINT (-97.0536756468294 32.8171955109651)",CENTREPORT STATION,33258,-97.0536756468294,32.8171955109651
"POINT (-97.0078706486985 32.8165114217216)",WEST IRVING STATION,33259,-97.0078706486985,32.8165114217216
"POINT (-96.7039121544923 33.0032130653429)",CITYLINE/BUSH STATION,33260,-96.7039121544923,33.0032130653429
"POINT (-96.7933089757228 32.6942131051086)",LANCASTER @ VA HOSPITAL - S - NS,33261,-96.7933089757228,32.6942131051086
"POINT (-96.9052587704881 32.7791452480848)",BERNAL/SINGLETON TL,33262,-96.9052587704881,32.7791452480848
"POINT (-97.0372355475349 32.906332563113)",TERMINAL A @ ENTRY LL A10 - N - NS,33263,-97.0372355475349,32.906332563113
"POINT (-96.9482086776772 32.8146533319372)",DOWNTOWN IRVING/HERITAGE CROSSING STATION,33264,-96.9482086776772,32.8146533319372
"POINT (-96.8383099152577 32.7332721530816)",TYLER VERNON STATION,33265,-96.8383099152577,32.7332721530816
"POINT (-96.8128489353379 32.741003125311)",ZOO STATION,33267,-96.8128489353379,32.741003125311
"POINT (-96.9336545798001 32.8764393634275)",NORTH IRVING TC,33269,-96.9336545798001,32.8764393634275
"POINT (-96.7329346371761 32.8555710578186)",WHITE ROCK STATION,33270,-96.7329346371761,32.8555710578186
"POINT (-96.8040858489569 32.7816041228517)",CBD WEST TC,33272,-96.8040858489569,32.7816041228517
"POINT (-96.8013049642787 32.7070711139065)",LANCASTER @ KIEST STA - S - FS,33273,-96.8013049642787,32.7070711139065
"POINT (-96.801098964571 32.707487113674)",LANCASTER @ KIEST STA - N - NS,33274,-96.801098964571,32.707487113674
"POINT (-96.700711105049 33.0216190776114)",DOWNTOWN PLANO STATION,33275,-96.700711105049,33.0216190776114
"POINT (-96.7009780720369 33.0337500857882)",PARKER ROAD STATION,33276,-96.7009780720369,33.0337500857882
"POINT (-97.0078786479338 32.8163124217368)",WEST IRVING STATION,33277,-97.0078786479338,32.8163124217368
"POINT (-96.7938467879476 32.8053331153109)",CITYPLACE/UPTOWN WEST,33278,-96.7938467879476,32.8053331153109
"POINT (-96.737583357494 32.9409650609815)",SPRING VALLEY STATION,33281,-96.737583357494,32.9409650609815
"POINT (-96.7934168954878 32.7688341071222)",CEDARS STATION,33282,-96.7934168954878,32.7688341071222
"POINT (-96.8835895673352 32.8818232831907)",WALNUT HILL/DENTON STATION,33283,-96.8835895673352,32.8818232831907
"POINT (-96.8625046559551 32.8433292284673)",BURBANK STATION,33284,-96.8625046559551,32.8433292284673
"POINT (-96.8334207180576 32.822868176385)",INWOOD/LOVE FIELD STATION,33285,-96.8334207180576,32.822868176385
"POINT (-96.8328967450503 32.8123631712962)",SOUTHWEST MEDICAL DISTRICT/PARKLAND,33286,-96.8328967450503,32.8123631712962
"POINT (-96.7093719615796 32.7327630546377)",LAKE JUNE STATION,33287,-96.7093719615796,32.7327630546377
"POINT (-96.6849839388501 32.7187800554479)",BUCKNER STATION,33288,-96.6849839388501,32.7187800554479
"POINT (-96.7620864730943 32.9084000819827)",FOREST LN STATION,33289,-96.7620864730943,32.9084000819827
"POINT (-96.7649235541407 32.8834290845652)",GLEN LAKES @ MANDERVILLE - W - MB,33290,-96.7649235541407,32.8834290845652
"POINT (-96.7657325892673 32.8726200849845)",PARK LANE STATION,33292,-96.7657325892673,32.8726200849845
"POINT (-96.8964214862702 32.9219873313553)",FARMERS BRANCH STATION,33294,-96.8964214862702,32.9219873313553
"POINT (-96.8774966294438 32.8535952566243)",BACHMAN STATION,33295,-96.8774966294438,32.8535952566243
"POINT (-96.823352771096 32.8047491555161)",MARKET CENTER STATION,33296,-96.823352771096,32.8047491555161
"POINT (-96.7118274899028 32.897794059513)",LBJ / SKILLMAN STATION,33297,-96.7118274899028,32.897794059513
"POINT (-96.9081134289575 32.9545063769473)",DOWNTOWN CARROLLTON STATION,33299,-96.9081134289575,32.9545063769473
"POINT (-96.7200169203663 32.7653800543132)",LAWNVIEW STATION,33300,-96.7200169203663,32.7653800543132
"POINT (-96.7424599382505 32.7664080547631)",HATCHER STATION,33301,-96.7424599382505,32.7664080547631
"POINT (-96.9263873949472 32.9809084335657)",TRINITY MILLS RAIL STATION,33302,-96.9263873949472,32.9809084335657
"POINT (-96.6014375972119 32.8429430559368)",LAKE RAY HUBBARD TRANSIT CENTER,33303,-96.6014375972119,32.8429430559368
"POINT (-96.8280893595742 32.9586972185151)",ADDISON TRANSIT CENTER,33305,-96.8280893595742,32.9586972185151
"POINT (-96.8050269530939 32.7229241171537)",ILLINOIS TC/STATION,33306,-96.8050269530939,32.7229241171537
"POINT (-96.7645615547855 32.8830960836517)",WALNUT HILL STATION,33307,-96.7645615547855,32.8830960836517
"POINT (-96.7642589077464 32.773863072335)",J B JACKSON JR TRANSIT CENTER,33310,-96.7642589077464,32.773863072335
"POINT (-96.7641349069787 32.773916072457)",J B JACKSON JR TRANSIT CENTER,33312,-96.7641349069787,32.773916072457
"POINT (-96.701150071961 33.0337680853899)",PARKER ROAD STATION,33313,-96.701150071961,33.0337680853899
"POINT (-96.9149576309169 32.8493173115809)",UNIVERSITY OF DALLAS STATION,33314,-96.9149576309169,32.8493173115809
"POINT (-96.9671065829019 32.8749834172258)",NORTHLAKE COLLEGE STATION,33315,-96.9671065829019,32.8749834172258
"POINT (-96.9863055670927 32.8880794620231)",BELT LINE STATION,33316,-96.9863055670927,32.8880794620231
"POINT (-96.8878675387169 32.8958182995258)",ROYAL LANE STATION,33317,-96.8878675387169,32.8958182995258
"POINT (-96.8041428491806 32.7816171232631)",CBD WEST TC,33318,-96.8041428491806,32.7816171232631
"POINT (-96.7307465564267 32.8796830592474)",LAKE HIGHLANDS STATION,33320,-96.7307465564267,32.8796830592474
"POINT (-96.7833718503692 32.7867350984355)",MALCOLM X @ JUNIUS - S - MB,33321,-96.7833718503692,32.7867350984355
"POINT (-96.7830498515379 32.7866540974992)",MALCOLM X @ JUNIUS - N - NS,33322,-96.7830498515379,32.7866540974992
"POINT (-96.7822338498629 32.7872900967886)",BAYLOR STATION EAST,33323,-96.7822338498629,32.7872900967886
"POINT (-96.7828668506077 32.7868420977074)",BAYLOR STATION WEST,33324,-96.7828668506077,32.7868420977074
"POINT (-96.7414459393716 32.7656930553096)",ELSIE FAYE HEGGINS @ RACELL - E- NS,33325,-96.7414459393716,32.7656930553096
"POINT (-96.7414239388178 32.7659890551841)",ELSIE FAYE HEGGINS @ KENILWORTH - W - NS,33326,-96.7414239388178,32.7659890551841
"POINT (-96.7661368794423 32.7819750758648)",FAIR PARK STATION,33328,-96.7661368794423,32.7819750758648
"POINT (-96.7820508492819 32.7874250963959)",BAYLOR STATION,33329,-96.7820508492819,32.7874250963959
"POINT (-96.8240407694182 32.8051071567699)",HARRY HINES @ VAGAS - N - FS,33331,-96.8240407694182,32.8051071567699
"POINT (-96.5665224173977 32.9037380583992)",DOWNTOWN ROWLETT STATION,33332,-96.5665224173977,32.9037380583992
"POINT (-96.9395945779811 32.8776563741027)",IRVING CONVENTION CENTER STATION,33335,-96.9395945779811,32.8776563741027
"POINT (-96.7927608518306 32.784013109384)",CBD EAST TC,33338,-96.7927608518306,32.784013109384
"POINT (-96.9867425152389 32.9306085082495)",CYPRESS WATERS @ CHAPEL OAKS -  N - MB,33357,-96.9867425152389,32.9306085082495
"POINT (-96.8080738106809 32.7940711318208)",HUNT @ HARWOOD - W - NS,33373,-96.8080738106809,32.7940711318208
"POINT (-96.7469824646162 32.9094060600623)",GREENVILLE @ FOREST - S - NS,33383,-96.7469824646162,32.9094060600623
"POINT (-96.738170356976 32.9410740614118)",LINGCO @ SPRING VALLEY - S - MB,33437,-96.738170356976,32.9410740614118
